{"type":"FeatureCollection","origin":"https://opendataday.org","updated":"2018-03-03T12:44:59.320Z","features":[{"type":"Feature","properties":{"place":"Louvain-la-Neuve","program":"Open Belgium 2018","url":"http://2018.openbelgium.be","nParticipants":300,"organizers":"Open Knowledge Belgium"},"geometry":{"type":"Point","coordinates":[4.610124,50.668695]}},{"type":"Feature","properties":{"place":"İstanbul","program":"Open Data for Animal Rights","url":"http://www.verigazeteciligi.com","nParticipants":20,"organizers":"Dag Medya"},"geometry":{"type":"Point","coordinates":[28.978359,41.008238]}},{"type":"Feature","properties":{"place":"Accra","program":"Open Accra 2018","nParticipants":15,"organizers":"Mohammed Sadat Abdulai (I may also organise with my affiliate, the Wikimedia Ghana Usergroup)"},"geometry":{"type":"Point","coordinates":[-0.192016,5.559646]}},{"type":"Feature","properties":{"place":"Wuppertal","program":"Opendataday Wuppertal 2018 (SmartCity)","url":"http://opendatal.de/oddw2018","nParticipants":50,"organizers":"Opendatal"},"geometry":{"type":"Point","coordinates":[7.144814,51.266691]}},{"type":"Feature","properties":{"place":"Salvador - Bahia - Brazil","program":"Open Data Day Salvador ","url":"http://www.labpublico.cc","nParticipants":50,"organizers":"UFBA (NPGA - EAUFBA)"},"geometry":{"type":"Point","coordinates":[-38.5201706,-12.9955844]}},{"type":"Feature","properties":{"place":"Woodstock Bandwidth Barn, Cape Town, South Africa","program":"Cape Town Open Data Hackathon","nParticipants":50,"organizers":"\"Cape Innovation and Technology Initiative\"  and City Of Cape Town"},"geometry":{"type":"Point","coordinates":[18.446093,-33.926453]}},{"type":"Feature","properties":{"place":"Seoul, Korea","program":"Open Data Day in Korea","organizers":"Open Knowledge Korea"},"geometry":{"type":"Point","coordinates":[126.977969,37.566535]}},{"type":"Feature","properties":{"place":"Abu Dhabi, UAE","program":"UAE Hackathon Abu Dhabi - Data for Happiness","url":"https://www.tra.gov.ae/en/media-hub/hackathon.aspx","nParticipants":200,"organizers":"TRA"},"geometry":{"type":"Point","coordinates":[54.394924,24.447324]}},{"type":"Feature","properties":{"place":"Dubai","program":"UAE Hackathon Dubai - Data for Happiness","url":"https://www.tra.gov.ae/en/media-hub/hackathon.aspx","nParticipants":200,"organizers":"TRA"},"geometry":{"type":"Point","coordinates":[55.386487,25.102139]}},{"type":"Feature","properties":{"place":"Sharjah UAE","program":"UAE Hackathon Sharjah, Data for Happiness","url":"https://www.tra.gov.ae/en/media-hub/hackathon.aspx","nParticipants":200,"organizers":"TRA"},"geometry":{"type":"Point","coordinates":[55.478371,25.286771]}},{"type":"Feature","properties":{"place":"Ajman, UAE","program":"UAE Hackathon Ajman & Umm Al Quwain - Data for Happiness","url":"https://www.tra.gov.ae/en/media-hub/hackathon.aspx","nParticipants":200,"organizers":"UAE TRA"},"geometry":{"type":"Point","coordinates":[55.508107,25.412256]}},{"type":"Feature","properties":{"place":"Fujairah, UAE","program":"UAE Hackathon Fujairah, Data for Happiness ","url":"https://www.tra.gov.ae/en/media-hub/hackathon.aspx","nParticipants":200,"organizers":"UAE TRA"},"geometry":{"type":"Point","coordinates":[56.292898,25.130947]}},{"type":"Feature","properties":{"place":"Ras Al Khaimah, UAE","program":"UAE Hackathon, Ras Al Khaimah, Data for Happiness","url":"https://www.tra.gov.ae/en/media-hub/hackathon.aspx","nParticipants":200,"organizers":"UAE TRA"},"geometry":{"type":"Point","coordinates":[55.992929,25.788867]}},{"type":"Feature","properties":{"place":"Hong Kong","program":"Open Data Day 2018 Hong Kong","url":"https://opensource.hk/open-data-day-2018-hong-kong/","nParticipants":40,"organizers":"Open Source Hong Kong"},"geometry":{"type":"Point","coordinates":[114.109497,22.396428]}},{"type":"Feature","properties":{"place":"JODHPUR, RAJASTHAN , INDIA","program":"ODDJODHPUR","url":"http://fossyatra.wordpress.com","nParticipants":200,"organizers":"FossYatra"},"geometry":{"type":"Point","coordinates":[72.983697,26.278159]}},{"type":"Feature","properties":{"place":"Jodhpur ,Rajasthan ,India","program":"ODD-JODHPUR","url":"http://fossyatra.wordpress.com","nParticipants":200,"organizers":"FOSSYATRA"},"geometry":{"type":"Point","coordinates":[72.98444,26.285511]}},{"type":"Feature","properties":{"place":"La Paz, Bolivia","program":"ODD Bolivia","url":"https://www.facebook.com/boliviatechhub/","nParticipants":50,"organizers":"Willmar A. Pimentel"},"geometry":{"type":"Point","coordinates":[-68.119031,-16.515141]}},{"type":"Feature","properties":{"place":"Maceio Al, Brazil","program":"Open Data Day Maceio (oddmcz)","url":"https://doity.com.br/oddmcz2018","nParticipants":80,"organizers":"Melquesedeque Balbino da Rocha, Hudson Gomes"},"geometry":{"type":"Point","coordinates":[-35.702164,-9.652412]}},{"type":"Feature","properties":{"place":"Mexico City","program":"Taller de análisis de Datos Abiertos con Python ","url":"https://www.meetup.com/soul-tlamaqui/events/","nParticipants":25,"organizers":"Alberto Rodríguez Sánchez, Alejandra Rodríguez Sánchez"},"geometry":{"type":"Point","coordinates":[-99.186973,19.503419]}},{"type":"Feature","properties":{"place":"Kampala - Uganda ","program":"https://www.meetup.com/NetSquared-Uganda/events/246476636/","url":"https://www.meetup.com/netsquared-uganda/events/246476636/","nParticipants":50,"organizers":"Fund Africa Inc, Net-squared Kampala,  Alwenyi Catherine Cassidy +256 700 551037, catherinecassidy06@gmail.com, infofundafrica@gmail.com"},"geometry":{"type":"Point","coordinates":[32.585347,0.3456]}},{"type":"Feature","properties":{"place":"Tampere, Finland","program":"Mindtrek 2018","url":"http://www.mindtrek.org/2018","nParticipants":900,"organizers":"Centre for Open Systems and Solutions - COSS"},"geometry":{"type":"Point","coordinates":[23.707294,61.510333]}},{"type":"Feature","properties":{"place":"Yaounde ","program":"IMPACTING CAMEROONIANS TO ADVANCE OPEN RESEARCH DATA ","url":"https://www.meetup.com/netsquaredyaounde-technology-hub/events/246288384/","nParticipants":600,"organizers":"NETSQUARED YAOUNDE CAMEROON"},"geometry":{"type":"Point","coordinates":[11.502075,3.848032]}},{"type":"Feature","properties":{"place":"Antananarivo","program":"Open Data for Citizens","organizers":"MAdagascar Initiatives for Digital Innovation"},"geometry":{"type":"Point","coordinates":[47.53613,-18.91368]}},{"type":"Feature","properties":{"place":"Antananarivo,Madagascar","program":"Open Data for Citizens","organizers":"MAdagascar Initiatives for Digital Innovation"},"geometry":{"type":"Point","coordinates":[47.507905,-18.87919]}},{"type":"Feature","properties":{"place":"Ibadan, Nigeria ","program":"Citizen Participatory Audit for Public Accountability Using Open Data","url":"http://www.plsinitiative.org","nParticipants":50,"organizers":"Paradigm Leadership Support Initiative (PLSI)"},"geometry":{"type":"Point","coordinates":[3.948855,7.37881]}},{"type":"Feature","properties":{"place":"Mexico City, Mexico","program":"Open Data Day 2018 - Ciudad de México","url":"https://socialtic.org/events/open-data-day-2018/","nParticipants":200,"organizers":"SocialTIC"},"geometry":{"type":"Point","coordinates":[-99.180652,19.41208]}},{"type":"Feature","properties":{"place":"Panama","program":"Datos y Pintas III ","url":"http://www.ipandetec.org","nParticipants":50,"organizers":"IPANDETEC - Datos Abiertos Panamá"},"geometry":{"type":"Point","coordinates":[-80.782127,8.537981]}},{"type":"Feature","properties":{"place":"Lagos, Nigeria","program":"Data Science Lagos ","nParticipants":50,"organizers":"Akin-Awokoya Emmanuel (InvestXD), Oluwole Oyekanmi(Quantextive)"},"geometry":{"type":"Point","coordinates":[3.446852,6.443395]}},{"type":"Feature","properties":{"place":"Nigeria","program":"Open Data Day-Port Harcourt","organizers":"DotsConnect"},"geometry":{"type":"Point","coordinates":[7.005287,4.832536]}},{"type":"Feature","properties":{"place":"Brussels, Belgium","program":"Towards Clean Air with Open Data","url":"https://cleanairwithopendata.eventbrite.co.uk","nParticipants":100,"organizers":"Open Knowledge Belgium"},"geometry":{"type":"Point","coordinates":[4.357473,50.845512]}},{"type":"Feature","properties":{"place":"Johannesburg ","program":"Open Data Day Johannesburg","url":"http://geekulcha.com/odisc","nParticipants":50,"organizers":"Geekulcha, ICRD Group Foundation"},"geometry":{"type":"Point","coordinates":[28.04,-26.20518]}},{"type":"Feature","properties":{"place":"Lomé, Togo","program":"Open Data Day 2018, Lomé-Togo","url":"https://www.facebook.com/events/1622089621183937/","nParticipants":100,"organizers":"Minodoo"},"geometry":{"type":"Point","coordinates":[1.1708,6.1765]}},{"type":"Feature","properties":{"place":"Abu Dhabi, UAE","program":"UAE Data for Happiness","url":"http://hackathon.government.ae","nParticipants":200,"organizers":"Katherine Townsend, Hessa Al Shamsi"},"geometry":{"type":"Point","coordinates":[55.478371,25.286771]}},{"type":"Feature","properties":{"place":"Moscow","program":"Moscow Open data day","url":"http://msk.opendataday.ru","nParticipants":300,"organizers":"NGO \"Infoculture\" (https://www.infoculture.ru/)"},"geometry":{"type":"Point","coordinates":[37.617499,55.751979]}},{"type":"Feature","properties":{"place":"Potsdam","program":"Open Data Day","url":"http://www.oklab-potsdam.de","nParticipants":50,"organizers":"LHP / OK Lab Potsdam"},"geometry":{"type":"Point","coordinates":[13.05793,52.4054]}},{"type":"Feature","properties":{"place":"Denton, Texas","program":"Denton Open Data Day 2018","url":"https://www.eventbrite.com/e/denton-open-data-day-2018-tickets-42316376421?ref=estw","nParticipants":70,"organizers":"Smart Denton Lab"},"geometry":{"type":"Point","coordinates":[-97.124917,33.214042]}},{"type":"Feature","properties":{"place":"Join us online to help protect girls from FGM in Tanzania via mapping","program":"Crowd2Map","url":"https://www.eventbrite.co.uk/e/online-mapathon-for-ope-data-day-map-tanzania-to-help-end-fgm-tickets-38118498455","nParticipants":1000,"organizers":"Janet Chapman, Crowd2Map"},"geometry":{"type":"Point","coordinates":[34.7113,-1.7054]}},{"type":"Feature","properties":{"place":"Dusseldorf, Germany","program":"Open Data Day Düsseldorf 2018 (#ODDD18)","url":"https://codefordus.nrw","nParticipants":50,"organizers":"OK Lab Düsseldorf, Heinrich-Heine-Universität Abteilung für Informationswissenschaft, Stadt Düsseldorf Open Data"},"geometry":{"type":"Point","coordinates":[6.78099,51.22628]}},{"type":"Feature","properties":{"place":"djelfa","program":"Djelfa Developers HUB","url":"https://www.facebook.com/events/1683603105021252","nParticipants":40,"organizers":"Code Club Djelfa"},"geometry":{"type":"Point","coordinates":[3.263912,34.657669]}},{"type":"Feature","properties":{"place":"Guatemala City, Guatemala","program":"Open Data Day en Guatemala","url":"http://escueladedatos.org","nParticipants":50,"organizers":"EscueladeDatos.org"},"geometry":{"type":"Point","coordinates":[-90.522713,14.628434]}},{"type":"Feature","properties":{"place":"Burlington, USA","program":"Vermont Open Data Day","url":"http://meetu.ps/e/dnbt0/z0wcb/f","nParticipants":40,"organizers":"Code for BTV"},"geometry":{"type":"Point","coordinates":[-73.212072,44.475882]}},{"type":"Feature","properties":{"place":"Windhoek, Namibia","program":"4th Open Data Innovation Hackathon","url":"https://www.facebook.com/events/330494460768616/","nParticipants":100,"organizers":"Open Data Namibia and Namibia Business Innovation Institute"},"geometry":{"type":"Point","coordinates":[17.0750228,-22.5672331]}},{"type":"Feature","properties":{"place":"Abidjan - Côte d'Ivoire","program":"A la découverte de l'Open Data...","nParticipants":20,"organizers":"Communauté Open Data Côte d'Ivoire"},"geometry":{"type":"Point","coordinates":[-4.01266,5.30966]}},{"type":"Feature","properties":{"place":"Buenos Aires","program":"DataCamp ","organizers":"Fundación Conocimiento Abierto @okfnar"},"geometry":{"type":"Point","coordinates":[-58.381559,-34.603684]}},{"type":"Feature","properties":{"place":"Ciudad de Córdona","program":"DataCamp ","organizers":"Fundación Conocimiento Abierto Open Data Córdoba "},"geometry":{"type":"Point","coordinates":[-64.188776,-31.420083]}},{"type":"Feature","properties":{"place":"Veracruz ","program":"Celebración del Día Internacional de Datos Abiertos","nParticipants":80,"organizers":"H. Ayuntamiento de Veracruz"},"geometry":{"type":"Point","coordinates":[-96.134224,19.173773]}},{"type":"Feature","properties":{"place":"Lagos -  Nigeria","program":"ITRealms Open Data Day (T-ODD) 2018","url":"https://www.facebook.com/events/401506173623306/?acontext={\"action_history\":[{\"surface\":\"dashboard\",\"mechanism\":\"calendar_tab_event\",\"extra_data\":\"{\\\"dashboard_filter\\\":\\\"upcoming\\\"}\"}],\"ref\":2,\"source\":2}","nParticipants":150,"organizers":"DigitalSENSE Africa Media"},"geometry":{"type":"Point","coordinates":[3.379206,6.524379]}},{"type":"Feature","properties":{"place":"Kinshasa, democratic republic of Congo","program":"Tracking Public Money in DRCongo","nParticipants":300,"organizers":"Narcisse Mbunzama, DRCongo Open Data Association"},"geometry":{"type":"Point","coordinates":[15.266293,-4.441931]}},{"type":"Feature","properties":{"place":"Taipei, Taiwan","program":"g0v hackathon","url":"http://hack.g0v.tw","nParticipants":120,"organizers":"g0v jothon"},"geometry":{"type":"Point","coordinates":[121.614506,25.04101]}},{"type":"Feature","properties":{"place":"FabLab / Coworking Heilbronn","program":"Open Data Day 2018 Heilbronn\n","url":"https://www.meetup.com/codeforhn/events/246402098/","nParticipants":25,"organizers":"Adrian Stabiszewski"},"geometry":{"type":"Point","coordinates":[9.2203,49.139]}},{"type":"Feature","properties":{"place":"San Juan, Metro Manila, PH","program":"Open Day 2018 in Manila, Philippines","url":"https://ti.to/mapamore/odd2018","nParticipants":40,"organizers":"The MapAm❤re Initiative"},"geometry":{"type":"Point","coordinates":[121.04008,14.59444]}},{"type":"Feature","properties":{"place":"Rosario, Argentina","program":"Datos Abiertos Rosario 2018","url":"http://www.accioncolectiva.net/odd18","nParticipants":300,"organizers":"Acción Colectiva"},"geometry":{"type":"Point","coordinates":[-60.650539,-32.944243]}},{"type":"Feature","properties":{"place":"Trento","program":"Open Data HackaBot Trentino","url":"https://www.odhb2018.net","nParticipants":100,"organizers":"Provincia Autonoma di Trento (dati.trentino.it)"},"geometry":{"type":"Point","coordinates":[11.121749,46.074779]}},{"type":"Feature","properties":{"place":"Riga, Latvia","program":"Dattack","url":"http://dattack.lv/en/","nParticipants":100,"organizers":"Staro Riga, Metasphere, Krisjanis Rijnieks"},"geometry":{"type":"Point","coordinates":[24.106773,56.955496]}},{"type":"Feature","properties":{"place":"Dushanbe, Tajikistan","program":"Open Data Day Tajikistan 2018 (#ODDT18)","url":"http://opendata.tj","nParticipants":30,"organizers":"OpenData.TJ"},"geometry":{"type":"Point","coordinates":[68.790207,38.571522]}},{"type":"Feature","properties":{"place":"Niamey (Niger)","program":"Training researchers on skills and competencies for practicing open science","url":"https://goo.gl/vbxxp4","nParticipants":40,"organizers":"Abdou Moumouni University (Contact person Dr Ibrahim Sidi Zakari)"},"geometry":{"type":"Point","coordinates":[2.092724,13.502607]}},{"type":"Feature","properties":{"place":"Manila Philippines","program":"Open Data Day Philippines (ODDPH2018)","nParticipants":100,"organizers":"Open Knowledge Philippines"},"geometry":{"type":"Point","coordinates":[121.021573,14.562006]}},{"type":"Feature","properties":{"place":"Louisville, KY USA","program":"Open Data Day","nParticipants":75,"organizers":"Civic Data Alliance"},"geometry":{"type":"Point","coordinates":[-85.758456,38.252665]}},{"type":"Feature","properties":{"place":"Miami, FL, USA","program":"International Open Data Day","url":"https://www.eventbrite.com/e/international-open-data-day-tickets-42648520874","nParticipants":100,"organizers":"Code for Miami, Florida International University"},"geometry":{"type":"Point","coordinates":[-80.19179,25.76168]}},{"type":"Feature","properties":{"place":"Porto, Portugal","program":"Open Data Day 2018","url":"http://www.transparenciahackday.org","nParticipants":40,"organizers":"Transparência Hackday Portugal"},"geometry":{"type":"Point","coordinates":[-8.616269,41.151539]}},{"type":"Feature","properties":{"place":"Atlanta, Georgia, USA","program":"Atlanta Greenspace Hackathon","url":"https://www.eventbrite.com/e/atlanta-greenspace-hackathon-tickets-42438262987","organizers":"Code for Atlanta"},"geometry":{"type":"Point","coordinates":[-84.365967,33.772517]}},{"type":"Feature","properties":{"place":"Cologne, Germany","program":"Open Data Day Cologne","url":"http://open-data-day-2018.hack.institute","organizers":"hack.institute & OK Lab Köln"},"geometry":{"type":"Point","coordinates":[6.945715,50.930282]}},{"type":"Feature","properties":{"place":"Jaffna ","program":"OSM Mapping in the Northern Area ","url":"https://www.openstreetmap.org/search?query=jaffna","nParticipants":25,"organizers":"OSM Community Sri Lanka "},"geometry":{"type":"Point","coordinates":[80.080376,9.568251]}},{"type":"Feature","properties":{"place":"Dar es salaam, Tanzania","program":"OPEN DATA AND STATISTICAL LITERACY IN TANZANIA","url":"https://groups.google.com/d/msgid/dlabopendata/ca%2be%2baw7v3kpp7wgcnnrc5xhoixbjjjtgd3dxrng20xvabumfuw%40mail.gmail.com.","nParticipants":100,"organizers":"\nINTERNATIONAL STATISTICAL LITERACY PROJECT (ISLP)-TANZANIA\n\n(ELIEZA PAUL -COUNTRY COORDINATOR- TANZANIA )\n\n"},"geometry":{"type":"Point","coordinates":[39.2083,-6.792]}},{"type":"Feature","properties":{"place":"Kyiv, Ukraine","program":"Open Data Day Kyiv","url":"https://www.facebook.com/events/158940604889761/","nParticipants":100,"organizers":"1991 Open Data Incubator (SocialBoost)"},"geometry":{"type":"Point","coordinates":[30.5234,50.4501]}},{"type":"Feature","properties":{"place":"Münster, Germany","program":"Offene Daten - Was wünschen sich die Bürgerinnen und Bürger der Stadt Münster?","url":"http://codeformuenster.org/opendataday/","nParticipants":40,"organizers":"CodeForMünster"},"geometry":{"type":"Point","coordinates":[7.62836,51.961834]}},{"type":"Feature","properties":{"place":"Pasto, Colombia","program":"Lanzamiento periódico \"Le tengo el dato\" (Visualización de datos abiertos)","url":"http://gana.narino.gov.co","organizers":"Gobierno Abierto de Nariño (Gobernación de Nariño)"},"geometry":{"type":"Point","coordinates":[-77.2776714,1.2143119]}},{"type":"Feature","properties":{"place":"Karlsruhe, Germany","program":"Open Data Day 2018 - Karlsruhe","url":"https://www.meetup.com/de-de/ok-lab-karlsruhe/events/247346492/","organizers":"OK Lab Karlsruhe"},"geometry":{"type":"Point","coordinates":[8.382729,49.001436]}},{"type":"Feature","properties":{"place":"Curitiba","program":"Movimenta Curitiba","url":"https://web.facebook.com/events/185492678712581/","nParticipants":5000,"organizers":"Movimenta Curitiba"},"geometry":{"type":"Point","coordinates":[-49.253668,-25.460181]}},{"type":"Feature","properties":{"place":"United Kingdom","program":"Celebrating the Open Data of Death","organizers":"Free UK Genealogy"},"geometry":{"type":"Point","coordinates":[-3.120117,53.973859]}},{"type":"Feature","properties":{"place":"Raleigh NC USA","program":"NC Open Pass Datajam","nParticipants":200,"organizers":"Open Raleigh Brigade and NC Data4Good"},"geometry":{"type":"Point","coordinates":[-78.674,35.7719]}},{"type":"Feature","properties":{"place":"San Francisco California United States","program":"Open Data Day San Francisco","url":"https://www.eventbrite.com/e/code-for-san-francisco-open-data-day-2018-tickets-42826162204","nParticipants":100,"organizers":"Open Data Bay Area, Lisa Green"},"geometry":{"type":"Point","coordinates":[-122.397658,37.77873]}},{"type":"Feature","properties":{"place":"Panama","program":"Hackaton: liberando datos de contratos de tecnología en Panamá","url":"http://www.ipandetec.org","nParticipants":100,"organizers":"IPANDETEC"},"geometry":{"type":"Point","coordinates":[79.5201,8.9936]}},{"type":"Feature","properties":{"place":"Dhaka, Bangladesh","program":"Dhaka OpenDataDay Mapathon with BHOOTs @Pathao","url":"https://www.facebook.com/groups/ask.bhoot/","nParticipants":75,"organizers":"Bangladesh Humanitarian OpenStreetMap Operations Team (BHOOT) & Pathao Ltd"},"geometry":{"type":"Point","coordinates":[90.401518,23.793687]}},{"type":"Feature","properties":{"place":"Tirana, Albania","program":"Follow the Money, tell us where does  my money go?","url":"http://www.ais.al","nParticipants":50,"organizers":"Albanian Institute of Science"},"geometry":{"type":"Point","coordinates":[19.818698,41.327546]}},{"type":"Feature","properties":{"place":"Mar del Plata, Argentina","program":"Datos Abiertos y Ciudadania","url":"http://escueladefiscales.com/index.php/opendataday/","nParticipants":120,"organizers":"Escuela de Fiscales"},"geometry":{"type":"Point","coordinates":[-57.542611,-38.005477]}},{"type":"Feature","properties":{"place":"Colombia / Quindio / Armenia","program":"Día de los Datos Abiertos (Armenia)","url":"https://tupale.co/e84","nParticipants":15,"organizers":"Tupale.co"},"geometry":{"type":"Point","coordinates":[-75.672809,4.535741]}},{"type":"Feature","properties":{"place":"Chiba, Japan","program":"Civic Power Battle in IODD 2018","url":"https://iodd2018chiba.peatix.com","nParticipants":100,"organizers":"Code for Chiba"},"geometry":{"type":"Point","coordinates":[140.119872,35.608677]}},{"type":"Feature","properties":{"place":"Mirabel, Ardèche, France","program":"Hackathon Ardèche","url":"http://www.ardeche.fr/1253-open-data.htm","nParticipants":50,"organizers":"Département de l'Ardèche"},"geometry":{"type":"Point","coordinates":[4.498617,44.607301]}},{"type":"Feature","properties":{"place":"Belgrade, Serbia","program":"Open Data Week","organizers":"Government of Serbia - Office for IT and e-Government, UNDP Serbia"},"geometry":{"type":"Point","coordinates":[20.464635,44.800078]}},{"type":"Feature","properties":{"place":"Cape Coast,(UCC Wascal Center) Ghana","program":"Open mapping","nParticipants":45,"organizers":"UCC YouthMappers"},"geometry":{"type":"Point","coordinates":[-1.291918,5.119182]}},{"type":"Feature","properties":{"place":"Tulsa, OK USA","program":"Tulsa Open Data Day","url":"https://www.eventbrite.com/e/tulsa-open-data-day-tickets-42770267020","nParticipants":30,"organizers":"Code for Tulsa"},"geometry":{"type":"Point","coordinates":[-95.958457,36.0864021]}},{"type":"Feature","properties":{"place":"Lagos, Nigeria","program":"ISpatial Open Data","url":"http://ispatial.space","nParticipants":50,"organizers":"ISpatial Technologies"},"geometry":{"type":"Point","coordinates":[3.568616,6.472516]}},{"type":"Feature","properties":{"place":"Minna Niger State Nigeria ","program":"ISODAF Open Data Day 2018","nParticipants":90,"organizers":"Initiative for Social Development in Africa (iSODAF)"},"geometry":{"type":"Point","coordinates":[6.546316,9.583555]}},{"type":"Feature","properties":{"place":"Sokoto State Nigeria","program":"Open Sokoto 2018","nParticipants":120,"organizers":"Engage Diaspora Foundation Inc"},"geometry":{"type":"Point","coordinates":[5.247552,13.005873]}},{"type":"Feature","properties":{"place":"Minna Nigeria","program":"Open Niger","nParticipants":100,"organizers":"Engage Diaspora Foundation Inc "},"geometry":{"type":"Point","coordinates":[6.546316,9.583555]}},{"type":"Feature","properties":{"place":"Hermosillo, Sonora, Mexico","program":"Hermosillo Open Data Fest","url":"https://www.hermosillo.gob.mx","nParticipants":100,"organizers":"Alejandro Salcido"},"geometry":{"type":"Point","coordinates":[-110.955919,29.072967]}},{"type":"Feature","properties":{"place":"Navi Mumbai","program":"UXO OpenDataDay Celebration","url":"https://www.eventbrite.com/e/uxo-opendataday-celebration-tickets-42778352203","nParticipants":30,"organizers":"UXO-INDIA"},"geometry":{"type":"Point","coordinates":[73.127985,18.990546]}},{"type":"Feature","properties":{"place":"Bangkok, Thailand","program":"International Opendata Day : Bangkok","url":"http://opendataday.in.th","nParticipants":200,"organizers":"Social Technology Institute ( http://socialtech.or.th )"},"geometry":{"type":"Point","coordinates":[100.543399,13.751161]}},{"type":"Feature","properties":{"place":"Kigoma Ujiji Municipal ","program":"Open data day","nParticipants":30,"organizers":"KDI"},"geometry":{"type":"Point","coordinates":[29.674561,-4.91148]}},{"type":"Feature","properties":{"place":"Uganda, Mbarara","program":"MUST MAPATHON","url":"https://goo.gl/forms/inoz6a5h2bq3mi3d2","nParticipants":20,"organizers":"MUST Street Mappers"},"geometry":{"type":"Point","coordinates":[30.657864,-0.624342]}},{"type":"Feature","properties":{"place":"Kampala","program":"Mapathon to Strengthen and Expand the Network","url":"http://mapuganda.org/recent-activities","nParticipants":20,"organizers":"MapUganda"},"geometry":{"type":"Point","coordinates":[32.594,0.34184]}},{"type":"Feature","properties":{"place":"Sherubtse College, Kanglung, Eastern Bhutan","program":"Mapping social infrastructure in Kanglung using OpenStreetMapping ","url":"https://www.facebook.com/sherubtse.mappers/","organizers":"Geographical Society, Sherubtse College, Royal University of Bhutan"},"geometry":{"type":"Point","coordinates":[91.523688,27.286715]}},{"type":"Feature","properties":{"place":"Havana, Cuba","program":"¡Vamos a mapear La Habana!","nParticipants":30,"organizers":"OSM Cuban Community"},"geometry":{"type":"Point","coordinates":[-82.366596,23.113592]}},{"type":"Feature","properties":{"place":"Kaduna, Nigeria","program":"Public Money, Open Data, Kaduna","nParticipants":40,"organizers":"CoLab"},"geometry":{"type":"Point","coordinates":[7.416505,10.510464]}},{"type":"Feature","properties":{"place":"New York City, USA","program":"NYC School of Data 2018","url":"https://schoolofdata.nyc","nParticipants":200,"organizers":"BetaNYC"},"geometry":{"type":"Point","coordinates":[-73.990707,40.74218]}},{"type":"Feature","properties":{"place":"Puebla","program":"CiudaDatos","nParticipants":100,"organizers":"Gobierno del estado de Puebla y Epicentro Inefable A.C."},"geometry":{"type":"Point","coordinates":[-98.206201,19.041289]}},{"type":"Feature","properties":{"place":"Akure, Nigeria","program":"Building a resilience Akure City, with open mapping ","nParticipants":60,"organizers":"Youthmappers FUTA"},"geometry":{"type":"Point","coordinates":[5.137,7.3043]}},{"type":"Feature","properties":{"place":"Conakry, Guinea","program":"The Open Mapping OpenStreetMap (OSM): which benefits for students?","nParticipants":55,"organizers":"The OSM Guinea community "},"geometry":{"type":"Point","coordinates":[-13.58084,9.67731]}},{"type":"Feature","properties":{"place":"Newport, RI, USA","program":"Newport Open Data Day","url":"https://attending.io/events/newport-open-data-day","organizers":"Newport Data Project"},"geometry":{"type":"Point","coordinates":[-71.312829,41.490102]}},{"type":"Feature","properties":{"place":"Nashik","program":"Oprn Data Day Celebration","url":"https://docs.google.com/forms/d/e/1faipqlsdz1dorjhhmpuln5afcdmwfcxwc-r0fsjeh2k7vwm04t2fqeg/viewform?c=0&w=1","nParticipants":40,"organizers":"Albedo Foundation, Naksha"},"geometry":{"type":"Point","coordinates":[73.8205142,20.0136043]}},{"type":"Feature","properties":{"place":"Lusaka, Zambia","program":"The power of open data","nParticipants":30,"organizers":"OpenStreetMap Zambia"},"geometry":{"type":"Point","coordinates":[28.322817,-15.387526]}},{"type":"Feature","properties":{"place":"Monze, Zambia","program":"Open data for development planning","nParticipants":40,"organizers":"OpenStreetMap Zambia"},"geometry":{"type":"Point","coordinates":[27.473257,-16.280321]}},{"type":"Feature","properties":{"place":"Khulna - 9208, Bangladesh","program":"Open Data Day : Khulna University","nParticipants":100,"organizers":"Skill Development Klub - KU"},"geometry":{"type":"Point","coordinates":[89.53239,22.803312]}},{"type":"Feature","properties":{"place":"Kurigram","program":"Digitizing Municipality Level Data in Kurigram (Sadar Thana, Kurigram, Bangladesh)","nParticipants":50,"organizers":"Shepro Foundation"},"geometry":{"type":"Point","coordinates":[89.6295,25.8072]}},{"type":"Feature","properties":{"place":"Kurigram, Bangladesh","program":"Kurigram Open Data Day Mapathon with Shepro Foundation","url":"https://web.facebook.com/events/149398979198513/","nParticipants":50,"organizers":"Shepro Foundation"},"geometry":{"type":"Point","coordinates":[89.6295,25.8072]}},{"type":"Feature","properties":{"place":"Bhubaneswar","program":"Open Data Day 2018 Bhubaneswar","url":"https://theofdn.org/open-data-day-2018-bhubaneswar/","nParticipants":10,"organizers":"O Foundation, Odia Wikimedians User Group, Sambad Group"},"geometry":{"type":"Point","coordinates":[85.82454,20.296059]}},{"type":"Feature","properties":{"place":"El Salvador","program":"#DatosAbiertos El Salvador 2018","organizers":"DatosElSalvador"},"geometry":{"type":"Point","coordinates":[-89.228966,13.694325]}},{"type":"Feature","properties":{"place":"İstanbul","program":"Open Data For Fair Public Transportation in İstanbul","url":"http://www.verigazeteciligi.com/2018-acik-veri-gunu-open-data-day-2018-etkinlik-kayitlari-basladi/","nParticipants":20,"organizers":"Dağ Medya"},"geometry":{"type":"Point","coordinates":[28.978359,41.008238]}},{"type":"Feature","properties":{"place":"Munich","program":"Open Data Hackathon Munich","url":"https://www.meetup.com/de-de/code-for-muenchen/events/247507806/","organizers":"Landeshauptstadt München, CCC"},"geometry":{"type":"Point","coordinates":[11.608375,48.123849]}},{"type":"Feature","properties":{"place":"Salvador, Brazil","program":"Open Data Day - Dia De Dados Abertos","url":"http://raulhc.cc/agenda.2018-03-03-opendataday","nParticipants":15,"organizers":"Raul Hacker Club"},"geometry":{"type":"Point","coordinates":[-38.4944865,-13.0108746]}},{"type":"Feature","properties":{"place":"Buenos Aires","program":"Open Data Day Buenos Aires","organizers":"Fundación Conocimiento Abierto"},"geometry":{"type":"Point","coordinates":[-58.381559,-34.603684]}},{"type":"Feature","properties":{"place":"Ankara","program":"Open Data Advocacy for Civil Society","url":"https://www.avvg.org.tr/yazilar/286-2018-acik-veri-gunu-etkinlik-kayitlari-basladi.html","nParticipants":10,"organizers":"www.avvg.org.tr"},"geometry":{"type":"Point","coordinates":[32.859742,39.933363]}},{"type":"Feature","properties":{"place":"Mwanza, Tanzania","program":"Open Data and Open Mapping Training Event","url":"https://www.eventbrite.co.uk/e/open-data-day-openstreetmap-training-event-tickets-42906056169","nParticipants":100,"organizers":"Crowd2Map, Data Zetu and Humanitarian OpenStreetMap Tanzania"},"geometry":{"type":"Point","coordinates":[32.338,-2.215]}},{"type":"Feature","properties":{"place":"Jiutepec, Morelos, México","program":"PRIMER HACKATON SOBRE RESIDUOS SÓLIDOS MUNICIPALES","organizers":"Gobierno de Jiutepec, INEGI, UPEMOR e IMIPE"},"geometry":{"type":"Point","coordinates":[-99.137814,18.892847]}},{"type":"Feature","properties":{"place":"São Paulo, Brazil","program":"Dia de Dados Abertos na Câmara","url":"https://www.eventbrite.com/e/dia-dos-dados-abertos-na-camara-tickets-42910869566","nParticipants":50,"organizers":"Gabinete56, LabHacker"},"geometry":{"type":"Point","coordinates":[-46.641263,-23.550594]}},{"type":"Feature","properties":{"place":"Bogota, Colombia","program":"Día De Datos Abiertos Despacio","url":"http://www.despacio.org/2018/02/08/dia-de-datos-abiertos-despacio/","nParticipants":30,"organizers":"www.despacio.org"},"geometry":{"type":"Point","coordinates":[-74.058309,4.669655]}},{"type":"Feature","properties":{"place":"Cleveland, Ohio, USA","program":"Data Days CLE ","url":"http://datadayscle.org","nParticipants":100,"organizers":"Cleveland Civic Tech and Open Data Collaborative"},"geometry":{"type":"Point","coordinates":[-81.644,41.5043]}},{"type":"Feature","properties":{"place":"San Francisco, California, United States of America","program":"Open Data Day 2018","url":"https://www.eventbrite.com/e/code-for-san-francisco-open-data-day-2018-tickets-42826162204","nParticipants":100,"organizers":"Code for San Francisco"},"geometry":{"type":"Point","coordinates":[-122.413649,37.775641]}},{"type":"Feature","properties":{"place":"Seoul","program":"Open Data Day in Korea","url":"http://okfn.kr","nParticipants":100,"organizers":"Open Knowledge Korea"},"geometry":{"type":"Point","coordinates":[126.986,37.541]}},{"type":"Feature","properties":{"place":"Barcelona, Spain","program":"Reutilitzem Dades","url":"http://www.opendataday.cat","nParticipants":50,"organizers":"ideograma, Iniciativa Barcelona Open Data"},"geometry":{"type":"Point","coordinates":[2.154301,41.382863]}},{"type":"Feature","properties":{"place":"Sao Paulo","program":"Dados Abertos e Feminicídios","nParticipants":20,"organizers":"Artigo 19"},"geometry":{"type":"Point","coordinates":[-46.633309,-23.55052]}},{"type":"Feature","properties":{"place":"Owerri, Nigeria","program":"Empowering young girls to make informed decision about their sexual health and well being.","organizers":"InspireIT"},"geometry":{"type":"Point","coordinates":[7.013979,5.489659]}},{"type":"Feature","properties":{"place":"Tirana, Albania","program":"Tirana Open Source Geoportal Hackathon","url":"http://www.openlabs.cc","nParticipants":25,"organizers":"OpenLabs Hackerspace"},"geometry":{"type":"Point","coordinates":[19.828938,41.321553]}},{"type":"Feature","properties":{"place":"Bogota","program":"Día De Datos Abiertos Despacio","url":"http://www.despacio.org/2018/02/08/dia-de-datos-abiertos-despacio/","nParticipants":30,"organizers":"www.despacio.org"},"geometry":{"type":"Point","coordinates":[-74.058305,4.669655]}},{"type":"Feature","properties":{"place":"Port Harcourt","program":"Let's Map our World:How to map with Openstreetmap","url":"https://web.facebook.com/uniquemappersteamportharcourt/","nParticipants":100,"organizers":"UniquMappersTeam(UMT)University of Port Harcourt"},"geometry":{"type":"Point","coordinates":[6.937827,4.907623]}},{"type":"Feature","properties":{"place":"Oyo,Nigeria","program":"Open Data Mapping Using OpenstreetMap","url":"https://web.facebook.com/oyomappersteam-omt-oyo-1432864713415765/?ref=your_pages","nParticipants":70,"organizers":"OyoMappersTeam(OMT)Federal School of Surveying,Oyo,Nigeria"},"geometry":{"type":"Point","coordinates":[4.225725,8.123388]}},{"type":"Feature","properties":{"place":"Enugu,Nigeria","program":"Open Data Practical Training and Mapathon  Using Openstreetmap ","url":"https://web.facebook.com/lionmappersteam-enugu-campus-361221567667528/","nParticipants":100,"organizers":"LionMappersTeam(LMT)University of Nigeria,Enugu Campus,Nigeria"},"geometry":{"type":"Point","coordinates":[7.504434,6.425185]}},{"type":"Feature","properties":{"place":"Nsukka,Nigeria","program":"Open Data Practical Training and Mapathon Using Openstreetmap","url":"https://web.facebook.com/lionmappersteamnsukka/","nParticipants":100,"organizers":"LionMappersTeam(LMT)Nsukka,University of Nigeria,Nsukka"},"geometry":{"type":"Point","coordinates":[7.408288,6.864455]}},{"type":"Feature","properties":{"place":"Owerri,Nigeria","program":"FutuMappersTeam Inaugural Training:How to map with Openstreetmap","url":"https://web.facebook.com/search/top/?q=timipre ruth","nParticipants":50,"organizers":"FutoMappersTeam(FMT)Federal University of Technology,Owerri,Being coordinated by UnqueMappersTeam-YouthMappers Chapter"},"geometry":{"type":"Point","coordinates":[6.991631,5.386632]}},{"type":"Feature","properties":{"place":"Medialab-Prado, Madrid, Spain","program":"Día de los Datos Abiertos ","url":"https://www.medialab-prado.es/actividades/dia-de-los-datos-abiertos","nParticipants":77,"organizers":"Datalab Madrid, ODI Madrid, OEG-UPM"},"geometry":{"type":"Point","coordinates":[-3.693585,40.41052]}},{"type":"Feature","properties":{"place":"Wellington, New Zealand","program":"Open Data, Open Potential","url":"https://www.eventbrite.co.nz/e/open-data-open-potential-event-friday-2-march-2018-tickets-42733708673","nParticipants":250,"organizers":"Stats NZ"},"geometry":{"type":"Point","coordinates":[174.780104,-41.290052]}},{"type":"Feature","properties":{"place":"Bern, Switzerland","program":"Open Data Day Bern","url":"https://www.effinger.ch/events/100180/","nParticipants":50,"organizers":"Opendata.ch, Swiss chapter of Open Knowledge"},"geometry":{"type":"Point","coordinates":[7.43592,46.946102]}},{"type":"Feature","properties":{"place":"Nova Scotia, Canada","program":"Nova Scotia Open Data Contest","url":"https://www.eventbrite.ca/e/nova-scotia-open-data-contest-tickets-42905119367?aff=es2","organizers":"Province of Nova Scotia with the School of Information Management and the Rowe School of Business (Faculty of Management, Dalhousie University)"},"geometry":{"type":"Point","coordinates":[-63.588217,44.637028]}},{"type":"Feature","properties":{"place":"Concepción, Chile","program":"Open Data Day Concepción","url":"https://www.facebook.com/events/2065717930311445/","nParticipants":100,"organizers":"OpenData CCP"},"geometry":{"type":"Point","coordinates":[-73.04439,-36.820135]}},{"type":"Feature","properties":{"place":"Halifax, Nova Scotia","program":"Nova Scotia Open Data Contest","url":"https://www.eventbrite.ca/e/nova-scotia-open-data-contest-tickets-42905119367","nParticipants":100,"organizers":"Dalhousie University & The Province of Nova Scotia"},"geometry":{"type":"Point","coordinates":[-63.588217,44.637028]}},{"type":"Feature","properties":{"place":"Aberdeen, UK","program":"Aberdeen Data Meetup Launch Event","url":"https://www.eventbrite.co.uk/e/aberdeen-data-meetup-scoping-session-tickets-43029677925","nParticipants":20,"organizers":"ODI Aberdeen"},"geometry":{"type":"Point","coordinates":[-2.100491,57.146636]}},{"type":"Feature","properties":{"place":"Port Harcourt","program":"Open Data Mapping using Openstreetmap","url":"https://web.facebook.com/ignatiusmappersteam","nParticipants":70,"organizers":"IgatiusMappersTeam(IMT)Port Harcourt,Ignatius Ajuru University of Education"},"geometry":{"type":"Point","coordinates":[6.933647,4.806316]}},{"type":"Feature","properties":{"place":"Quito, Ecuador","program":"Open Data Day UIO ","url":"https://www.datalat.org/opendataday","nParticipants":100,"organizers":"Datalat"},"geometry":{"type":"Point","coordinates":[-78.482624,-0.192247]}},{"type":"Feature","properties":{"place":"Walnut Creek, USA","program":"Contra Costa Civic Hackathon for Open Data Day 2018","url":"https://www.eventbrite.com/e/contra-costa-civic-hackathon-for-open-data-day-2018-tickets-43005029200","nParticipants":50,"organizers":"Victory Workspace, Miller Media"},"geometry":{"type":"Point","coordinates":[-122.0640214,37.8964605]}},{"type":"Feature","properties":{"place":"Baunatal, Germany","program":"Open Data Day","url":"https://www.meetup.com/de-de/bntl-digital-kreativ/events/247662045/","nParticipants":15,"organizers":"Nils Schmidt, Florian Otto"},"geometry":{"type":"Point","coordinates":[9.4146,51.253728]}},{"type":"Feature","properties":{"place":"Copenhagen, Denmark","program":"Open Data Socialising in Copenhagen","url":"https://www.facebook.com/events/278057246058482/","nParticipants":50,"organizers":"Open Knowledge Denmark, Ethos Lab, Open4Citizens"},"geometry":{"type":"Point","coordinates":[12.590954,55.659638]}},{"type":"Feature","properties":{"place":"Chile","program":"Rally #DatosEnLaCalle","url":"http://www.opendataday.cl/rally","nParticipants":100,"organizers":"Observatorio del Gasto Fiscal en Chile, Ministerio de Obras Públicas"},"geometry":{"type":"Point","coordinates":[-70.65387,-33.442909]}},{"type":"Feature","properties":{"place":"Yangon, Myanmar","program":"2018Map Challenge : Help Map Yangon!","url":"https://docs.google.com/forms/d/e/1faipqlsfyp1bfo-89hzrgfyhrxvz69rmfubc9cjnrchi9m72ndcxkrw/viewform?usp=sf_link","nParticipants":100,"organizers":"Phandeeyar , OneMap Myanmar,  Ride partner - Grab"},"geometry":{"type":"Point","coordinates":[96.156649,16.772186]}},{"type":"Feature","properties":{"place":"Chile","program":"Lanzamiento DataChile Versión 2","url":"https://www.datachile.cl","organizers":"Datawheel"},"geometry":{"type":"Point","coordinates":[-70.669265,-33.44889]}},{"type":"Feature","properties":{"place":"London, UK","program":"Open Data Day London","url":"http://goldsmiths.tech/data","nParticipants":35,"organizers":"Hacksmiths - Goldsmiths Tech Society"},"geometry":{"type":"Point","coordinates":[-0.03511,51.474452]}},{"type":"Feature","properties":{"place":"Bishkek, Kyrgyzstan","program":"Data Journalism Hackathon #HackPoverty","url":"http://project533785.tilda.ws","nParticipants":70,"organizers":"School of Data Kyrgyzstan and American University in Central Asia"},"geometry":{"type":"Point","coordinates":[74.625192,42.817173]}},{"type":"Feature","properties":{"place":"Colombia","program":"Hackathon AlimenData","url":"https://app.sikuani.net/events/71/register","nParticipants":573007909287,"organizers":"Secretaría de Transparencia de la Presidencia de la República, el Ministerio de Hacienda y Crédito Público, el Ministerio de Tecnologías de la Información y las Comunicaciones y Open Knowledge Colombia"},"geometry":{"type":"Point","coordinates":[-74.074886,4.601022]}},{"type":"Feature","properties":{"place":"Colombia","program":"#RallyColombia","url":"https://app.sikuani.net/events/rallycolombia","nParticipants":100,"organizers":"Secretaría de Transparencia de la Presidencia de la República, el Ministerio de Hacienda y Crédito Público, el Ministerio de Tecnologías de la Información y las Comunicaciones y Open Knowledge Colombia"},"geometry":{"type":"Point","coordinates":[-74.074886,4.601022]}},{"type":"Feature","properties":{"place":"Yangon, Myanmar","program":"2018Map Challenge : Help Map Yangon!","url":"https://docs.google.com/forms/d/e/1faipqlsfyp1bfo-89hzrgfyhrxvz69rmfubc9cjnrchi9m72ndcxkrw/viewform?usp=sf_link","nParticipants":100,"organizers":"Phandeeyar , OneMap Myanmar, Ride partner - Grab"},"geometry":{"type":"Point","coordinates":[96.156649,16.772186]}},{"type":"Feature","properties":{"place":"Phnom Penh, Cambodia","program":"Open Data Day 2018","url":"https://www.eventbrite.com/e/open-data-day-2018-tickets-43121355134","nParticipants":100,"organizers":"Open Development Cambodia"},"geometry":{"type":"Point","coordinates":[104.9090709,11.5636644]}},{"type":"Feature","properties":{"place":"Trento","program":"OpenData HackaBot","url":"https://www.odhb2018.net","nParticipants":75,"organizers":"Organizzata da Provincia Autonoma di Trento e Opendata Trentino. \nIn collaborazione con Consorzio dei Comuni Trentini, Trentino Sviluppo, HIT (Hub Innovazione Trentino), SmartCrowds, cLab Trento, Informatica Trentina.\nCon il supporto di DataBoom, Dedagroup, Dimension, GPI, Hi-Logic, U-hopper, e i seguenti progetti Europei: INTERREG Europe OSIRIS e INTERREG central Europe IRBANINNO."},"geometry":{"type":"Point","coordinates":[11.1229379,46.0642076]}},{"type":"Feature","properties":{"place":"Little Rock, Arkansas, United States","program":"City of Little Rock Open Data Day","url":"https://www.eventbrite.com/e/little-rock-open-data-day-tickets-42986177815","nParticipants":75,"organizers":"City of Little Rock Data Governance Committee "},"geometry":{"type":"Point","coordinates":[-92.351844,34.667623]}},{"type":"Feature","properties":{"place":"Frankfurt am Main, DE","program":"Open Data Day Hackathon","url":"https://www.meetup.com/de-de/oklabffm/events/245260067/","organizers":"Bogomir Engel, Mischa Zöller"},"geometry":{"type":"Point","coordinates":[8.706141,50.125401]}},{"type":"Feature","properties":{"place":"Edmonton, Canada","program":"International Open Data Day 2018 @EPL","url":"https://www.epl.ca/odd/","nParticipants":60,"organizers":"Edmonton Public Library, City of Edmonton "},"geometry":{"type":"Point","coordinates":[-113.495953,53.541168]}},{"type":"Feature","properties":{"place":"Copenhagen, Denmark","program":"OPEN DATA DAY - Socializing in Copenhagen","url":"https://ethos.itu.dk/2018/02/13/celebrating-open-data-day-in-copenhagen/","nParticipants":100,"organizers":"ETHOS LAB, OPEN KNOWLEDGE DENMARK, OPEN4CITIZENS"},"geometry":{"type":"Point","coordinates":[12.591191,55.65989]}},{"type":"Feature","properties":{"place":"Bangkok","program":"International Open Data Day 2018 (Thailand Open Data API)","nParticipants":150,"organizers":"Electronic Government Agency (Public Organization) (EGA) "},"geometry":{"type":"Point","coordinates":[100.543369,13.726071]}},{"type":"Feature","properties":{"place":"Zagreb, Croatia","program":"Open Data Day Croatia / Dan otvorenih podataka","url":"https://odd.codeforcroatia.org","nParticipants":100,"organizers":"Code for Croatia, Information Commissioner Republic of Croatia, GONG, SRCE University Computing Center"},"geometry":{"type":"Point","coordinates":[15.966553,45.795616]}},{"type":"Feature","properties":{"place":"Yaoundé, Cameroon","program":"Open Data for Agriculture Development","nParticipants":25,"organizers":"NGALEU YVES STEPHANE"},"geometry":{"type":"Point","coordinates":[12.354722,7.369722]}},{"type":"Feature","properties":{"place":"Torino, Italy","program":"#ODD2018TO Wikidata editathon","url":"https://synapta.it/odd2018/","organizers":"Synapta Srl & friends"},"geometry":{"type":"Point","coordinates":[7.670588,45.066878]}},{"type":"Feature","properties":{"place":"Sacramento, USA","program":"Code for Sacramento Open Data Day","organizers":"Code for Sacramento"},"geometry":{"type":"Point","coordinates":[-121.4812317,38.579042]}},{"type":"Feature","properties":{"place":"Karatina University,Kenya.","program":"Bird-Mapping in the Mt Kenya ecosystem !","nParticipants":50,"organizers":"Karatina university Youth mappers chapter\nJoy mwangi-Alumni advisor karatina university chapter."},"geometry":{"type":"Point","coordinates":[37.12791,-0.481416]}},{"type":"Feature","properties":{"place":"Calgary, Canada","program":"CodeAcross Calgary - Civic Hackathon","url":"https://www.eventbrite.ca/e/codeacross-a-civictechyyc-hackathon-tickets-42887965058","nParticipants":50,"organizers":"CivicTechYYC"},"geometry":{"type":"Point","coordinates":[-114.070846,51.048615]}},{"type":"Feature","properties":{"place":"Washington DC","program":"Open Data Day 2018: Help complete the 2018 U.S. City Open Data Census","url":"https://www.eventbrite.com/e/open-data-day-2018-help-complete-the-2018-us-city-open-data-census-tickets-42989484706","organizers":"Sunlight Foundation"},"geometry":{"type":"Point","coordinates":[-77.033148,38.904269]}},{"type":"Feature","properties":{"place":"London, United Kingdom","program":"360Giving Open Data Day","url":"https://www.eventbrite.co.uk/e/360giving-open-data-day-2018-tickets-43196613233","nParticipants":45,"organizers":"360Giving"},"geometry":{"type":"Point","coordinates":[-0.116266,51.485841]}},{"type":"Feature","properties":{"place":"On the Internet","program":"Opening Death Data resources for family historians","url":"https://www.facebook.com/events/195049094575992/","organizers":"Free UK Genealogy"},"geometry":{"type":"Point","coordinates":[-2.861608,54.084727]}},{"type":"Feature","properties":{"place":"Bogotá, Colombia","program":"Data Week","url":"http://is.gd/oddbog","organizers":"Comunidad de Grafoscopio y Data Week / Grafoscopio and Data Week Community"},"geometry":{"type":"Point","coordinates":[-74.066024,4.631307]}},{"type":"Feature","properties":{"place":"Wuppertal","program":"Opendataday Wuppertal 2018 (SmartCity)","url":"http://opendatal.de/oddw2018/","nParticipants":50,"organizers":"Opendatal – OKLab Wuppertal und Stadt Wuppertal"},"geometry":{"type":"Point","coordinates":[7.127542,51.258271]}},{"type":"Feature","properties":{"place":"Natal, Brazil","program":"Open Data Day - Encontro de pesquisas sobre governança pública e dados abertos governamentais","url":"http://www.labgov.com.br/odd","nParticipants":150,"organizers":"LabGov/UFRN - Laboratório de Governança Pública da Universidade Federal do Rio Grande do Norte"},"geometry":{"type":"Point","coordinates":[-35.205317,-5.832136]}},{"type":"Feature","properties":{"place":"#REF!","program":"#REF!","organizers":"#REF!"},"geometry":{"type":"Point","coordinates":[null,null]}},{"type":"Feature","properties":{"place":"San Salvador","program":"Datos & Café","nParticipants":80,"organizers":"Fundación Latitudes, Háblame de Respeto, Escuela de Datos"},"geometry":{"type":"Point","coordinates":[-89.218191,13.69294]}},{"type":"Feature","properties":{"place":"Fort Collins, CO","program":"Open Geo Data Day","url":"https://gis.colostate.edu/news-events-2/","organizers":"Geospatial Centroid at Colorado State University"},"geometry":{"type":"Point","coordinates":[-105.084422,40.572957]}},{"type":"Feature","properties":{"place":"Cancún, México","program":"Día de Datos Abiertos 2018, Unicaribe","url":"http://opendataunicaribe.github.io/2018","nParticipants":100,"organizers":"Universidad del Caribe, Departamento de Ciencias Básica e Ingenierías"},"geometry":{"type":"Point","coordinates":[-86.822957,21.20071]}},{"type":"Feature","properties":{"place":"Edmonton, Alberta","program":"International Open Data Day 2018 @EPL","url":"https://www.epl.ca/odd/","organizers":"City of Edmonton and Edmonton Public Library"},"geometry":{"type":"Point","coordinates":[-113.490927,53.544389]}},{"type":"Feature","properties":{"place":"Helsinki, Finland","program":"Kick-off to Open Data Day by Hel<3Dev & OKFI","url":"https://www.facebook.com/events/940493522793115/","organizers":"Helsinki Loves Developers/City of Helsinki and Open Knowledge Finland"},"geometry":{"type":"Point","coordinates":[24.922738,60.167488]}},{"type":"Feature","properties":{"place":"Geneva Switzerland","program":"Open data for Humanitarian Action","nParticipants":30,"organizers":"IFRC and HDX"},"geometry":{"type":"Point","coordinates":[6.143158,46.204391]}},{"type":"Feature","properties":{"place":"Curitiba/Paraná/Brazil","program":"Curitiba Open data Day Kids","url":"https://doity.com.br/open-data-day-curitiba-2018","nParticipants":100,"organizers":"Cristiane Ilkiv Garcia\nStephan Rodrigues Garcia"},"geometry":{"type":"Point","coordinates":[-49.253432,-25.459923]}},{"type":"Feature","properties":{"place":"Département de l'Allier","program":"Cartoparty","url":"http://www.allier.fr","organizers":"Conseil départemental de l'Allier"},"geometry":{"type":"Point","coordinates":[3.333501,46.56863]}},{"type":"Feature","properties":{"place":"Kobe, Japan","program":"International Open Data Day 2018 in Kobe","url":"https://www.facebook.com/events/1242044385940061/","organizers":"Code for Kobe"},"geometry":{"type":"Point","coordinates":[135.195359,34.698202]}},{"type":"Feature","properties":{"place":"Albany/Troy, NY","program":"Open Data Day Albany/Troy","url":"http://opendataalbany.org","organizers":"Ursula Kaczmarek, Matthew Lean, Kishor Bagul"},"geometry":{"type":"Point","coordinates":[-73.689873,42.731093]}},{"type":"Feature","properties":{"place":"Ciudad Obregón, Sonora, México","program":"Cajeme Abierto","url":"https://www.facebook.com/opendatacajeme/","nParticipants":60,"organizers":"Anwar Benitez\nAndres Avilez\nGuillermo Aceves\nAnabell Covarrubias\nGabriela Lozoya\nIvan Fernandez\nIssa Mendez\nJuan Isaac Badouin\nIsrael Patiño\nRicardo Lugo"},"geometry":{"type":"Point","coordinates":[-109.929476,27.48306]}},{"type":"Feature","properties":{"place":"Denver, CO","program":"Mapping Mongolia at MSU","url":"https://www.meetup.com/osm-colorado/events/247885182/","organizers":"OSM Colorado (Russ Deffner), Ger Community Mapping Center (Delia Walker-Jones)"},"geometry":{"type":"Point","coordinates":[-105.005409,39.745928]}},{"type":"Feature","properties":{"place":"Toyohashi, Aichi, Japan","program":"川王　豊橋国際ハッカソン","url":"https://uzura.doorkeeper.jp/events/70877","organizers":"Code for MIKAWA（うずらインキュベータ）"},"geometry":{"type":"Point","coordinates":[137.407242,34.777613]}},{"type":"Feature","properties":{"place":"Tunisia","program":"Tunisia Open Data Hackathon","url":"http://appsfordemocracy.tn","organizers":"Forum pour une nouvelle république"},"geometry":{"type":"Point","coordinates":[9.537499,33.886917]}},{"type":"Feature","properties":{"place":"Bologna","program":"#ODD2018 Bologna: Dati & Donne Le correlazioni pericolose, le disuguaglianze strutturali","url":"https://educazioneaperta.eu/wp/open-data-day-2018-donne-dati/","nParticipants":50,"organizers":"Open Education Italia, Associazione Orlando, Comune di Bologna"},"geometry":{"type":"Point","coordinates":[11.327591,44.498955]}},{"type":"Feature","properties":{"place":"Zapopan, México","program":"ODD: Datos abiertos para la participación ciudadana. ","url":"https://www.facebook.com/changemakerstec/","nParticipants":100,"organizers":"Grupo Estudiantil Changemakers, Gerardo Cruz"},"geometry":{"type":"Point","coordinates":[-103.454912,20.735008]}},{"type":"Feature","properties":{"place":"New York, USA","program":"Evidence Appraisal Open Data Day","organizers":"EvidenceBase"},"geometry":{"type":"Point","coordinates":[-73.971424,40.792784]}},{"type":"Feature","properties":{"place":"Kigali, Rwanda","program":"Open data for Slum upgrading/map Kangondo, Kigali","nParticipants":24,"organizers":"YouthMappers at INES-Ruhengeri"},"geometry":{"type":"Point","coordinates":[30.10322,-1.933725]}},{"type":"Feature","properties":{"place":"Dayton, Ohio, USA","program":"Drop-in Data Dive ","url":"https://www.meetup.com/code-for-dayton/events/247919138/","nParticipants":20,"organizers":"Code for Dayton"},"geometry":{"type":"Point","coordinates":[-84.193016,39.760375]}},{"type":"Feature","properties":{"place":"Papeete / Tahiti / French Polynesia","program":"Open Data Day 2018 un Tahiti","url":"http://meetu.ps/e/dvh4y/wtrbk/d","nParticipants":15,"organizers":"Hubert Leviel, Laurent Pellet"},"geometry":{"type":"Point","coordinates":[-149.566231,-17.539802]}},{"type":"Feature","properties":{"place":"Washington, DC, USA","program":"Open Data Project Night","url":"https://www.meetup.com/code-for-dc/events/246029381/","organizers":"Code for DC"},"geometry":{"type":"Point","coordinates":[-77.031008,38.898569]}},{"type":"Feature","properties":{"place":"Madagascar","program":"\"Open data on public finances in Madagascar\"","nParticipants":100,"organizers":"Transparency International Initiative Madagascar"},"geometry":{"type":"Point","coordinates":[47.507905,-18.87919]}},{"type":"Feature","properties":{"place":"Madagascar","program":"Open data on public finances in Madagascar","nParticipants":100,"organizers":"Transparency International Initiative Madagascar"},"geometry":{"type":"Point","coordinates":[47.507905,-18.87919]}},{"type":"Feature","properties":{"place":"Tunis","program":"HACKATHON Apps For Democracy \"Open Data\"","url":"https://www.facebook.com/events/548210832226198/","nParticipants":50,"organizers":"Forum pour une Nouvelle République"},"geometry":{"type":"Point","coordinates":[10.21,36.83]}},{"type":"Feature","properties":{"place":"Rivne, Ukraine","program":"Sick Elections","url":"https://www.facebook.com/cn.opora/posts/10155228880010108?pnref=story","nParticipants":15,"organizers":"Civil Network OPORA"},"geometry":{"type":"Point","coordinates":[26.25015,50.62201]}},{"type":"Feature","properties":{"place":"Abuja, Nigeria ","program":"FollowtheFunds Town Hall Meeting powered with ConsTrack Mobile App","url":"http://bit.ly/2oa2ntu","nParticipants":12,"organizers":"OrderPaper NG"},"geometry":{"type":"Point","coordinates":[7.495371,9.034313]}},{"type":"Feature","properties":{"place":"Bucharest, Romania","program":"Culture Hack","url":"https://www.facebook.com/events/146996179392902/","nParticipants":50,"organizers":"Center for Public Innovation & OGP Romania"},"geometry":{"type":"Point","coordinates":[26.102142,44.439218]}},{"type":"Feature","properties":{"place":"Dhaka, Rajshahi, Satkhira, Barguna, Moulvibazar, Chittagong, Chapai Nawabganj, Bogra, Kurigram, Jhenaidah, Naugaon, Cox's Bazar, Khulna, Munshiganj, Bhola, Noakhali, Gaibandha","program":"Open Data Day 2018","url":"https://www.facebook.com/events/2062474293971708/","nParticipants":100,"organizers":"Open Knowledge Bangladesh and Bangladesh NGOs Network for Radio and Communication"},"geometry":{"type":"Point","coordinates":[90.412518,23.810332]}},{"type":"Feature","properties":{"place":"Eldoret, Kenya","program":"Data Driven Hack4Good-Governance","url":"https://docs.google.com/forms/d/e/1faipqlsdfsxk6qzty6ndlgy5q7j49mslq-wgwqwbiy1sjyzkxrzyzzq/viewform","nParticipants":50,"organizers":"EldoHub"},"geometry":{"type":"Point","coordinates":[35.265333,0.519504]}},{"type":"Feature","properties":{"place":"Amsterdam","program":"Hack de Valse Start","url":"https://hackdevalsestart.nl","nParticipants":100,"organizers":"Open State Foundation"},"geometry":{"type":"Point","coordinates":[4.832578,52.35618]}},{"type":"Feature","properties":{"place":"Austin, Texas","program":"Open Data Day ","url":"https://www.meetup.com/open-austin/events/zfmdhpyxfbfb/","organizers":"Open Austin "},"geometry":{"type":"Point","coordinates":[-97.740544,30.268994]}},{"type":"Feature","properties":{"place":"Saudi Arabia ","program":"Saudi Open Data Day","url":"https://twitter.com/datacommunitysa","organizers":"Saudi Data Community"},"geometry":{"type":"Point","coordinates":[46.675296,24.713552]}},{"type":"Feature","properties":{"place":"Rio de Janeiro","program":"Open Data Day in Rio","url":"https://www.facebook.com/events/343581412823483/","nParticipants":40,"organizers":"Marcela Ribeiro Gonçalves e Elizete Ignacio"},"geometry":{"type":"Point","coordinates":[-43.172896,-22.906847]}},{"type":"Feature","properties":{"place":"Cambridge, UK","program":"Open Data Day Cambridge 2018","url":"https://open-data-day-cambridge-2018.github.io","nParticipants":20,"organizers":"Yo Yehudi, Naomi Penfold"},"geometry":{"type":"Point","coordinates":[0.128621,52.197404]}},{"type":"Feature","properties":{"place":"Brisbane, Australia","program":"International Open Data Day Networking Event","url":"https://iodd.eventbrite.com.au","nParticipants":80,"organizers":"ODI Australian Network"},"geometry":{"type":"Point","coordinates":[153.0345,-27.4565]}},{"type":"Feature","properties":{"place":"Kochi, India","program":"MapMyData","nParticipants":60,"organizers":"PanApps / Assyst International Pvt Ltd"},"geometry":{"type":"Point","coordinates":[76.333526,10.073129]}},{"type":"Feature","properties":{"place":"Addis Ababa, Ethiopia","program":"OpenCon 2018 Addis Ababa","url":"http://www.opencon2017.org/opencon_2018_addis_ababa","nParticipants":40,"organizers":"Open Knowledge Ethiopia"},"geometry":{"type":"Point","coordinates":[38.757761,8.980603]}},{"type":"Feature","properties":{"place":"Addis Ababa, Ethiopia","program":"OpenCon 2018 Addis Ababa","url":"http://www.opencon2017.org/opencon_2018_addis_ababa","nParticipants":40,"organizers":"Open Knowledge Ethiopia and Addis Ababa University"},"geometry":{"type":"Point","coordinates":[38.757731,9.047696]}},{"type":"Feature","properties":{"place":"Zapopan","program":"¡Pasanos Tus Datos!","url":"http://www.facebook.com/zapopanlab","nParticipants":30,"organizers":"Zapopan Lab"},"geometry":{"type":"Point","coordinates":[-103.416501,20.671956]}},{"type":"Feature","properties":{"place":"Kimberley,South Africa","program":"Open Data Day Kimberley","nParticipants":40,"organizers":"NCDev Ecosystem"},"geometry":{"type":"Point","coordinates":[24.766445,-28.745104]}},{"type":"Feature","properties":{"place":"United Kingdom","program":"The Open Data of Death","url":"https://www.facebook.com/events/195049094575992/","organizers":"Free UK Genealogy"},"geometry":{"type":"Point","coordinates":[-1.340041,52.817867]}},{"type":"Feature","properties":{"place":"Fortaleza - Brasil","program":"Open Data Day UFC","organizers":"Labocart - UFC"},"geometry":{"type":"Point","coordinates":[-38.573561,-3.746096]}},{"type":"Feature","properties":{"place":"Los Angeles City Hall, USA","program":"LA City Council Meeting","url":"http://ens.lacity.org/clk/councilagendas/clkcouncilagendas3118730_02202018.html","organizers":"Los Angeles Councilmember Monica Rodriguez, 7th District; Los Angeles City Controller Ron Galperin"},"geometry":{"type":"Point","coordinates":[-118.2429316,34.0535267]}},{"type":"Feature","properties":{"place":"Porto Alegre","program":"Dia dos Dados Abertos POA","url":"https://goo.gl/forms/gj6vsdl6ipbrbtge2","nParticipants":40},"geometry":{"type":"Point","coordinates":[-51.217658,-30.034647]}},{"type":"Feature","properties":{"place":"New Orleans","program":"Hacks/Hackers Open Data Day 2018","url":"https://www.meetup.com/hacks-hackers-new-orleans/events/248003191/","organizers":"Samantha Sunne, Hacks/Hackers"},"geometry":{"type":"Point","coordinates":[-90.046529,29.964614]}},{"type":"Feature","properties":{"place":"Montréal, Québec, Canada","program":"Journée internationale des données ouvertes","url":"http://jido2018.waglo.com","nParticipants":50,"organizers":"Robin Millette"},"geometry":{"type":"Point","coordinates":[-73.561756,45.528374]}},{"type":"Feature","properties":{"place":"Tucson, AZ, USA","program":"Open Data Day Tucson 2018","url":"https://www.meetup.com/code-for-tucson/events/248009028/","nParticipants":10,"organizers":"Code for Tucson"},"geometry":{"type":"Point","coordinates":[-110.9528435,32.2311137]}},{"type":"Feature","properties":{"place":"Kurume city,japan","program":"IODD 2018 Data Analytics in Kurume","url":"https://www.facebook.com/events/1792217767748298/","nParticipants":24,"organizers":"Kurume Open Data  Promotion Research Group"},"geometry":{"type":"Point","coordinates":[130.51178,33.313572]}},{"type":"Feature","properties":{"place":"otsu shiga Japan","program":"Date Academy in Otsu","url":"http://www.city.otsu.lg.jp/kanko/event/1516766105677.html","organizers":"CIty Otsu"},"geometry":{"type":"Point","coordinates":[135.875551,35.006447]}},{"type":"Feature","properties":{"place":"Kishiwada OSAKA JAPAN","program":"岸和田おーぷんでーたそん2018(Kishiwada Opendatathon 2018)","url":"http://www.wakayama-u.ac.jp/kishiwada/post_460.html","nParticipants":30,"organizers":"Kishiwada city , Wakayama University , 和歌山大学岸和田サテライト友の会 , 泉州らへんでオープンデータとＧＩＳを楽しむ会"},"geometry":{"type":"Point","coordinates":[135.374222,34.45926]}},{"type":"Feature","properties":{"place":"Osaka","program":"The 9th Linked Open Data Hackathon in International Open Data Day OSAKA 2018","url":"http://iodd2018osaka.peatix.com","organizers":"Linked Open Data Challenge Committee Kansai, Japan  "},"geometry":{"type":"Point","coordinates":[135.489671,34.707637]}},{"type":"Feature","properties":{"place":"Ishikawa, Japan","program":"大雪災害について考えよう 〜 インターナショナル・オープンデータ・デイ2018 in Ishikawa","url":"https://www.facebook.com/events/162559927725035/","nParticipants":50,"organizers":"Code for Kanazawa"},"geometry":{"type":"Point","coordinates":[136.625573,36.594682]}},{"type":"Feature","properties":{"place":"Sapporo, Japan","program":"International OpenData day 2018 Sapporo","url":"https://connpass.com/event/80202/","nParticipants":30,"organizers":"Yasuto FURUKAWA, Code for Sapporo"},"geometry":{"type":"Point","coordinates":[141.352565,43.046279]}},{"type":"Feature","properties":{"place":"Fuchu,Tokyo","program":"IDOBATAKAIGI,March - IODD special -","url":"https://www.facebook.com/events/140000353478407/","nParticipants":15,"organizers":"Code for Fuchu"},"geometry":{"type":"Point","coordinates":[139.480403,35.672081]}},{"type":"Feature","properties":{"place":"Accra, Ghana","program":"iWatch Africa: 2018 International Open Data Day Conference","url":"http://iwatchafrica.org/2018/02/21/register-2018-international-open-data-day-conference/","nParticipants":20,"organizers":"iWatch Africa"},"geometry":{"type":"Point","coordinates":[-0.186964,5.603717]}},{"type":"Feature","properties":{"place":"Chelyabinsk","program":"Chelyabinsk Open data day","url":"http://day.opendatachel.ru","nParticipants":50,"organizers":"Timofey Subbotin (opendatachel.ru)"},"geometry":{"type":"Point","coordinates":[61.334273,55.188438]}},{"type":"Feature","properties":{"place":"Vienna, Austria","program":"Open Data Day Vienna","url":"https://open.wien.gv.at/site/der-open-data-day-2018-wien-ist-dabei/","organizers":"City of Vienna"},"geometry":{"type":"Point","coordinates":[16.357675,48.211003]}},{"type":"Feature","properties":{"place":"Kampala, Uganda","program":"Open Data Georeferencing","nParticipants":10,"organizers":"Rohan Cooray"},"geometry":{"type":"Point","coordinates":[32.58252,0.347596]}},{"type":"Feature","properties":{"place":"Quezon City, Metro Manila, Philippines","program":"Roundtable Discussion on Open Research in the Philippines","url":"http://ilead.ph/2018/02/20/open-data-day-rtd-on-open-research-in-the-philippines/","nParticipants":30,"organizers":"Institute for Leadership, Empowerment, and Democracy (iLEAD)"},"geometry":{"type":"Point","coordinates":[121.031705,14.629795]}},{"type":"Feature","properties":{"place":"Madrid","program":"Día de los Datos Abiertos","url":"https://www.medialab-prado.es/noticias/dia-de-los-datos-abiertos","nParticipants":100,"organizers":"ODI Madrid; OEG-UPM; DataLAB Madrid"},"geometry":{"type":"Point","coordinates":[3.693799,40.410531]}},{"type":"Feature","properties":{"place":"IT University,  Ethos Lab ","program":"OpenDataDay","url":"https://dk.okfn.org/2018/02/13/join-us-for-open-data-day-2018-in-copenhagen/","organizers":"OPEN KNOWLEDGE DANMARK, Open4Citizens,  Ethos Lab"},"geometry":{"type":"Point","coordinates":[12.590958,55.659635]}},{"type":"Feature","properties":{"place":"Abidjan (Côte d'Ivoire)","program":"Visualize geographical data on Côte d'Ivoire Extractive Industries.","nParticipants":15,"organizers":"Idriss KONE"},"geometry":{"type":"Point","coordinates":[-4.024429,5.345317]}},{"type":"Feature","properties":{"place":"Abidjan - Côte d'Ivoire","program":"A la découverte de l'Open Data","nParticipants":20,"organizers":"Ovillage"},"geometry":{"type":"Point","coordinates":[-4.008256,5.359952]}},{"type":"Feature","properties":{"place":"Tehran","program":"Open Data Day 2018 @ Shahid Beheshti (National) University (of Iran)","url":"http://www.sigchi.ir","organizers":"Dr. Kaveh Bazargan (SBU / SIGCHI.IR)"},"geometry":{"type":"Point","coordinates":[51.392683,35.798877]}},{"type":"Feature","properties":{"place":"Birmingham, UK","program":"Data Dig: Civil Society & Open Data expedition","url":"https://www.eventbrite.co.uk/e/data-dig-civil-society-open-data-expedition-registration-42570265811?utm_source=eb_email&utm_medium=email&utm_campaign=order_confirmation_email&utm_term=eventname&ref=eemailordconf","nParticipants":25,"organizers":"Pauline Roche, Ted Ryan (RnR Organisation), Simon Whitehouse, Mike Cummins (Data Unlocked)"},"geometry":{"type":"Point","coordinates":[-1.888244,52.489254]}},{"type":"Feature","properties":{"place":"Gifu, Japan","program":"FIND / GIFU","url":"https://iodd2018gifu.peatix.com","nParticipants":15,"organizers":"CODE for GIFU"},"geometry":{"type":"Point","coordinates":[137.252173,36.146124]}},{"type":"Feature","properties":{"place":"Managua, Nicaragua","program":"Open Data Day - Mapathon!","url":"https://www.facebook.com/events/207585956486814/","organizers":"YEKA Street MGA, YouthMappers "},"geometry":{"type":"Point","coordinates":[-86.268187,12.130239]}},{"type":"Feature","properties":{"place":"Kampala, Uganda","program":"Open-Contracting Data Clinic ","url":"https://africafoicentre.org/event/open-contracting-clinic-makerere-university/","nParticipants":30,"organizers":"Africa Freedom of Information Centre "},"geometry":{"type":"Point","coordinates":[32.570988,0.329183]}},{"type":"Feature","properties":{"place":"Cagliari, Italy","program":"Cagliari Open Data Day","url":"http://www.cagliariopendataday.eu","nParticipants":70,"organizers":"Circolo dei Giuristi Telematici, civic hackers"},"geometry":{"type":"Point","coordinates":[9.104686,39.221514]}},{"type":"Feature","properties":{"place":"Ikoma, Nara, Japan","program":"Open Data Drinking Party in IKOMA","url":"https://facebook.com/events/423095421484493","nParticipants":20,"organizers":"CODE for IKOMA"},"geometry":{"type":"Point","coordinates":[135.698848,34.695067]}},{"type":"Feature","properties":{"place":"AIZU","program":"Open Data Day in Aizu","url":"https://www.facebook.com/events/748414425348693/","organizers":"YASUSHI FUJII"},"geometry":{"type":"Point","coordinates":[139.92981,37.494761]}},{"type":"Feature","properties":{"place":"Los Angeles","program":"Open Data Day Community Training","url":"https://www.eventbrite.com/e/open-data-day-community-training-tickets-43280959515","nParticipants":40,"organizers":"DataLA, EmpowerLA, and USC Price Center for Social Innovation"},"geometry":{"type":"Point","coordinates":[-118.283851,34.019022]}},{"type":"Feature","properties":{"place":"Patan Durbar Square, Nepal","program":"Open Data Day Nepal 2018","url":"https://www.facebook.com/events/236362010240347/","nParticipants":500,"organizers":"Center for Data Journalism, Freedom Forum, Kathmandu Living Labs, Local Interventions Group, Nepal in Data, Open Knowledge Nepal, Open Nepal"},"geometry":{"type":"Point","coordinates":[85.325294,27.672731]}},{"type":"Feature","properties":{"place":"Jodhpur","program":"Play with Data","url":"http://fossyatra.wordpress.com","nParticipants":50,"organizers":"Team FossYatra"},"geometry":{"type":"Point","coordinates":[72.986926,26.271]}},{"type":"Feature","properties":{"place":"Paysandú, Uruguay","program":"Día de los Datos Abiertos del Río Uruguay","url":"http://www.datosriouruguay.org","nParticipants":45,"organizers":"Datos Concepción, Demos, PODER"},"geometry":{"type":"Point","coordinates":[-58.087646,-32.317758]}},{"type":"Feature","properties":{"place":"N'Djamena, Chad","program":"Dat'Apero","nParticipants":30,"organizers":"WenakLabs "},"geometry":{"type":"Point","coordinates":[15.055742,12.134846]}},{"type":"Feature","properties":{"place":"Shinagwa-ku, Tokyo, Japan","program":"Overcome the difficulties in parenting children in the declining birthrate era of Japan.","url":"https://www.facebook.com/events/1085188144956646/","nParticipants":50,"organizers":"Faculty of Economics, Rissho University."},"geometry":{"type":"Point","coordinates":[139.723338,35.620967]}},{"type":"Feature","properties":{"place":"Vienna, Austria","program":"Open Data Day Events in Vienna","url":"https://open.wien.gv.at/site/der-open-data-day-2018-wien-ist-dabei/","nParticipants":80,"organizers":"Open Government Competence Center Vienna & partners"},"geometry":{"type":"Point","coordinates":[16.357248,48.210876]}},{"type":"Feature","properties":{"place":"Helsinki, Finland","program":"March 2nd: Open Data Days in Helsinki - Day 2 \"Projects and working groups of Open Knowledge Finland\"","url":"https://www.okf.fi/odd18","organizers":"Open Knowledge Finland"},"geometry":{"type":"Point","coordinates":[24.92196,60.16737]}},{"type":"Feature","properties":{"place":"Helsinki, Finland","program":"March 3rd: Open Data Days in Helsinki - Day 3 \"Open Data Jam: Pop-in, Mapathons and Democrathons\"","url":"https://www.okf.fi/odd18","organizers":"Open Knowledge Finland, HOT-OSM Finland, OSM Finland, mySociety"},"geometry":{"type":"Point","coordinates":[24.92181,60.16697]}},{"type":"Feature","properties":{"place":"South Africa, Durban","program":"Land Dataquest","url":"https://www.meetup.com/open-data-durban-meetup/events/247864508/","nParticipants":20,"organizers":"Open Data Durban"},"geometry":{"type":"Point","coordinates":[31.048182,-29.871864]}},{"type":"Feature","properties":{"place":"Toyohashi,Aichi,Japan","program":"「川王」第1回 豊橋国際ハッカソン","nParticipants":20,"organizers":"Code for MIKAWA"},"geometry":{"type":"Point","coordinates":[137.391466,34.769199]}},{"type":"Feature","properties":{"place":"Région Sud Provence Alpes Côte d'Azur","program":"DataSud : lancement de la nouvelle infrastructure régionale de données  ","url":"http://opendata.regionpaca.fr/actualites/detail/data-sud-la-plateforme-mutualisee-de-donnees-ouvertes-et-geographiques.html","organizers":"Région Sud Provence Alpes Côte d'Azur"},"geometry":{"type":"Point","coordinates":[5.367501,43.30089]}},{"type":"Feature","properties":{"place":"Riga, Latvia","program":"Atvērto datu diena 2018","url":"https://www.facebook.com/events/209341259810187/","nParticipants":30,"organizers":"Datu Skola"},"geometry":{"type":"Point","coordinates":[24.11395,56.947251]}},{"type":"Feature","properties":{"place":"Zagreb, Croatia","program":"Open Data Day 2018","url":"http://opendataday.org","organizers":"Code for Croatia"},"geometry":{"type":"Point","coordinates":[15.981919,45.815011]}},{"type":"Feature","properties":{"place":"Zagreb","program":"Open Data Day 2018","url":"https://odd.codeforcroatia.org","organizers":"Code for Croatia"},"geometry":{"type":"Point","coordinates":[15.981919,45.815011]}},{"type":"Feature","properties":{"place":"Jena, Germany","program":"Open Data Day Jena 2018","url":"http://www.offenes-jena.de","organizers":"Achim Friedland"},"geometry":{"type":"Point","coordinates":[11.58457238,50.92876835]}},{"type":"Feature","properties":{"place":"Saint John, New Brunswick, Canada","program":"New Open Data Portal Launch","url":"http://www.saintjohn.ca/opendata","organizers":"The City of Saint John"},"geometry":{"type":"Point","coordinates":[-66.06,45.27]}},{"type":"Feature","properties":{"place":"Rosario, Argentina","program":"Encuentro de Hacking Civico Rosario","organizers":"Santalab\nAccion colectiva\nMuni Rosario\nEl desafio\nRed de ideas\nHack hackers\nObservatorio legislativo\nSTS Rosario\nGregaria\nFacultad libre\nPolilab\nEnRedAr\nFundacion Apertura\nRed Argentina de Educación Abierta"},"geometry":{"type":"Point","coordinates":[-60.650539,-32.944243]}},{"type":"Feature","properties":{"place":"Montevideo, Uruguay","program":"Open Data Day 2018","url":"https://www.meetup.com/es-es/cafes-de-data/events/248069696/","organizers":"DATA Uruguay, CÍVICO, La Diaria"},"geometry":{"type":"Point","coordinates":[-56.188301,-34.888746]}},{"type":"Feature","properties":{"place":"São Leopoldo, RIO GRANDE DO SUL, BRASIL","program":"Dia Internacional dos Dados Abertos","url":"http://www.unisinos.br/eventos/dia-internacional-dos-dados-abertos-ex123467-00001","organizers":"UNISINOS"},"geometry":{"type":"Point","coordinates":[-51.153468,-29.795943]}},{"type":"Feature","properties":{"place":"sabae city fukui pref  Japan","program":"まちで遊ぶアプリを考えよう”アイデアソン","url":"https://www.facebook.com/events/1907321896247919/","nParticipants":30,"organizers":"Code for Sabae ,Sabae city"},"geometry":{"type":"Point","coordinates":[136.183038,35.945402]}},{"type":"Feature","properties":{"place":"Taipei","program":"Open Data Day 2018","url":"https://okfntw.kktix.cc/events/odd2018","nParticipants":20,"organizers":"Open Knowledge Taiwan"},"geometry":{"type":"Point","coordinates":[121.5409716,25.0229327]}},{"type":"Feature","properties":{"place":"Stuttgart","program":"Open Data Day 2018 Stuttgart","url":"https://www.meetup.com/de-de/ok-lab-stuttgart-meet-up/events/248092908/","organizers":"OK Lab Stuttgart"},"geometry":{"type":"Point","coordinates":[9.183144,48.790149]}},{"type":"Feature","properties":{"place":"Ouagadougou","program":"État des données ouvertes au Burkina Faso et perspectives","url":"https://www.eventbrite.co.uk/e/journee-internationale-des-donnees-ouvertes-tickets-43475648836","nParticipants":50,"organizers":"Open Burkina"},"geometry":{"type":"Point","coordinates":[-1.50459,12.36804]}},{"type":"Feature","properties":{"place":"Asuncion","program":"Open Data Day Asu","url":"http://bit.ly/opendataday2018","nParticipants":50,"organizers":"Girolabs, TEDIC, CDS, CEAMSO, CIRD"},"geometry":{"type":"Point","coordinates":[-57.6594342,-25.2872044]}},{"type":"Feature","properties":{"place":"Berlin Germany","program":"Open Data Day Berlin 2018","url":"https://www.meetup.com/ok-lab-berlin/events/248093660/","organizers":"codefor.berlin / OK Lab Berlin"},"geometry":{"type":"Point","coordinates":[13.381026,52.498439]}},{"type":"Feature","properties":{"place":"Bamako, Mali","program":"Open Data Day 2018 Bamako","url":"https://tinyurl.com/opendataday2018-bamako","nParticipants":30,"organizers":"Openstreetmap Mali"},"geometry":{"type":"Point","coordinates":[-8.010392,12.6060138]}},{"type":"Feature","properties":{"place":"Mexico","program":"Inteligencia para evitar accidentes: Datos abiertos de percances viales Axa","url":"http://i2ds.org","nParticipants":80,"organizers":"Instituto Internacional de Ciencia de Datos, Axa"},"geometry":{"type":"Point","coordinates":[-99.173735,19.372628]}},{"type":"Feature","properties":{"place":"Natal/RN - Brasil","program":"Open Data Day Natal 2018","url":"http://sigeventos.ufrn.br/eventos/public/evento/opendataday2018","nParticipants":100,"organizers":"Elias Jacob de Menezes Neto (LabGov/CERES/UFRN)\nFabrício Germano Alves (LabGov/CERES/UFRN)\nFernando Marques Figueira Filho (Coopera:lab/DIMAp/UFRN)\nGibeon Soares de Aquino Jr. (SINFO/UFRN)\nYanko Marcius Alencar Xavier (DEPRO/CCSA/UFRN)"},"geometry":{"type":"Point","coordinates":[-35.205317,-5.832136]}},{"type":"Feature","properties":{"place":"Louisville, KY, USA","program":"Improve Louisville's Open Data Website","url":"https://www.meetup.com/louisville-civic-data-alliance/events/248099878/","nParticipants":30,"organizers":"Civic Data Alliance, Louisville Metro Innovation"},"geometry":{"type":"Point","coordinates":[-85.7629547,38.2574636]}},{"type":"Feature","properties":{"place":"Oakland, California, USA","program":"Open Data Day at Oakland Public Library","url":"https://www.meetup.com/openoakland/events/248040952/","nParticipants":20,"organizers":"Open Oakland, Oakland Public Ethics Commission"},"geometry":{"type":"Point","coordinates":[-122.263608,37.800978]}},{"type":"Feature","properties":{"place":"Nicaragua ","program":"Auditoría Social + DA + Municipios ","nParticipants":45,"organizers":"DLGP + Redes "},"geometry":{"type":"Point","coordinates":[-86.236174,12.114993]}},{"type":"Feature","properties":{"place":"Honolulu, Hawaii","program":"Open Data Day 2018 (Hawaii)","url":"https://opendataday2018.eventbrite.com","nParticipants":50,"organizers":"Hawaii Open Data"},"geometry":{"type":"Point","coordinates":[-157.858333,21.306944]}},{"type":"Feature","properties":{"place":"Ferrara., Italy","program":"Conoscere i dati sulle diseguaglianze per raccontare i fatti e migliorare la salute di tutti i cittadini","url":"http://www.ferrarasalute.it/relazioni-pubbliche/news/conoscere-i-dati-sulle-diseguaglianze-per-raccontare-i-fatti-e-migliorare-la-salute-di-tutti-i-cittadini","nParticipants":100,"organizers":"#FerraraOpenSanita, Comune di Ferrara, Ordine dei Giornalisti dell’Emilia Romagna, AUSL Ferrara, AOU Ferrara, Università di Ferrara, Agenda Digitale dell’Emilia Romagna"},"geometry":{"type":"Point","coordinates":[11.619787,44.838124]}},{"type":"Feature","properties":{"place":"Saint Petersburg, Russia","program":"Smart City Hackathon","url":"http://www.hackathon.spb.ru","nParticipants":60,"organizers":"ITMO University"},"geometry":{"type":"Point","coordinates":[30.282703,59.946372]}},{"type":"Feature","properties":{"place":"Osnabrück, Germany","program":"OpenDataDay Osnabrück 2018","url":"https://www.meetup.com/de-de/ok-lab-osnabruck/events/248131745/","organizers":"Open Knowledge Lab Osnabrück"},"geometry":{"type":"Point","coordinates":[8.041671,52.27741]}},{"type":"Feature","properties":{"place":"Medellin, Colombia","program":"UdeA training in OSM","organizers":"Universidad de Antioquia's Youthmappers chapter"},"geometry":{"type":"Point","coordinates":[-75.567391,6.268898]}},{"type":"Feature","properties":{"place":"Tunis","program":"Unlock the potential of local data","url":"http://onshor.org","nParticipants":11,"organizers":"Onshor"},"geometry":{"type":"Point","coordinates":[36.81473264,10.1792112]}},{"type":"Feature","properties":{"place":"Kosai, Shizuoka, JAPAN","program":"International OpenData Day in KOSAI","url":"https://open.kosai.org","nParticipants":30,"organizers":"opendata hamanako"},"geometry":{"type":"Point","coordinates":[137.531626,34.718466]}},{"type":"Feature","properties":{"place":"Nairobi, Kenya","program":"Nairobi Mapathon 2018","url":"https://docs.google.com/document/d/1jlhx7qjqnmcbvyscez7wdqfzkrfgdnkox5ef2l9znbk/edit","nParticipants":20,"organizers":"CODATA Agricultural Task Group , KALRO & JKUAT"},"geometry":{"type":"Point","coordinates":[36.821946,-1.292066]}},{"type":"Feature","properties":{"place":"Rabat","program":"Votez Pour Les Données Ouverts","url":"http://marocviz.ma","organizers":"Marocviz"},"geometry":{"type":"Point","coordinates":[-6.86291,33.9818]}},{"type":"Feature","properties":{"place":"Verschwörhaus Ulm","program":"Feinstaubsensorbau","url":"https://verschwoerhaus.de/feinstaubsensoren-im-eigenbau-am-3-3/","nParticipants":10,"organizers":"OK Lab Ulm / Ulmapi.de"},"geometry":{"type":"Point","coordinates":[48.39649,9.99014]}},{"type":"Feature","properties":{"place":"Sanfebagar, Nepal","program":"International Open Data Day Celebration by Sanfebagar Municipality, Achham: Launch of Open Data Portal and Municipality Points of Interest Mapping","nParticipants":150,"organizers":"Sanfebagar Municipality in coordination with YoungInnovations, Freedom Forum and CECI"},"geometry":{"type":"Point","coordinates":[81.21563833,29.23420333]}},{"type":"Feature","properties":{"place":"Suzaka, Nagano-pref, JP","program":"International Open Data Day 2018 in Suzaka","url":"https://www.facebook.com/events/1839352356077523/","nParticipants":40,"organizers":"Suzaka city ICT initiative"},"geometry":{"type":"Point","coordinates":[138.308622,36.654822]}},{"type":"Feature","properties":{"place":"Amagasaki City Japan","program":"てらまちアーカイブダンジョン","url":"https://www.facebook.com/events/904385893073714/","nParticipants":20,"organizers":"Code for Amagasaki"},"geometry":{"type":"Point","coordinates":[135.406376,34.733734]}},{"type":"Feature","properties":{"place":"Nashik","program":"\nOpen Data Day Celebration","url":"https://docs.google.com/forms/d/e/1faipqlsdz1dorjhhmpuln5afcdmwfcxwc-r0fsjeh2k7vwm04t2fqeg/viewform?c=0&w=1","organizers":"Albedo Foundation, Naksha"},"geometry":{"type":"Point","coordinates":[73.789802,19.997453]}},{"type":"Feature","properties":{"place":"Nairobi, Kenya","program":"WanaData Scrapathon","nParticipants":15,"organizers":"Code for Kenya"},"geometry":{"type":"Point","coordinates":[36.792975,-1.298076]}},{"type":"Feature","properties":{"place":"Yokohama-city and Kawasaki-city, kanagawa-pref, Japan","program":"urban data challenge 2017 Kanagawa-hub, submissions presentation","url":"https://openkawasaki.connpass.com/event/80860/","nParticipants":30,"organizers":"open kawasaki, code for kohoku"},"geometry":{"type":"Point","coordinates":[139.6225002,35.4682448]}},{"type":"Feature","properties":{"place":"New Orleans LA United States","program":"New Orleans Open Data Day ","url":"http://www.linkedin.com/in/davidcrais","nParticipants":500,"organizers":"David Crais "},"geometry":{"type":"Point","coordinates":[90,30]}},{"type":"Feature","properties":{"place":"Katowice, Poland","program":"Study of the Katowice’s Citizens Budget","url":"https://medialabkatowice.eu/en/events/study-of-the-katowices-citizens-budget/","nParticipants":10,"organizers":"Medialab Katowice"},"geometry":{"type":"Point","coordinates":[19.023436,50.252953]}},{"type":"Feature","properties":{"place":"Toronto","program":"Code Across 2018","url":"http://civictech.ca/codeacross-2018/","nParticipants":180,"organizers":"CivicTech Toronto"},"geometry":{"type":"Point","coordinates":[43.6532,-79.3832]}},{"type":"Feature","properties":{"place":"Bogotá","program":" ¿Para qué y cómo generar procesos de apropiación de Datos Abiertos?","url":"https://somosmas.org/boletines/2018/openday/","nParticipants":50,"organizers":"Corporación Somos Más, Open North, Iniciativa Latinoamericana por los Datos Abiertos (ILDA), Ministerio TIC Colombia"},"geometry":{"type":"Point","coordinates":[-74.073429,4.692287]}},{"type":"Feature","properties":{"place":"Seattle, WA, USA","program":"Hone Your Civic Hacking Skills!","url":"https://www.meetup.com/openseattle/events/248143078/","nParticipants":50,"organizers":"Open Seattle & Seattle PyLadies"},"geometry":{"type":"Point","coordinates":[-122.338101,47.621573]}},{"type":"Feature","properties":{"place":"Bharatpur Metropolitian City, Chitwan District, Nepal","program":"Open Data Day 2018 Bharatpur Chitwan Nepal","url":"http://bookingsewa.com/opendataday2018chitwan","nParticipants":50,"organizers":"FOSS Chitwan"},"geometry":{"type":"Point","coordinates":[84.417267,27.648664]}},{"type":"Feature","properties":{"place":"Tallinn","program":"Avaandmete päev / Open Data Day 2018","url":"http://opendata.ee/opendataday/et/","nParticipants":50,"organizers":"Open Knowledge Estonia, Wikimedia Estonia"},"geometry":{"type":"Point","coordinates":[24.753575,59.436961]}},{"type":"Feature","properties":{"place":"Xalapa, México","program":"Open Data Day Xalapa","url":"https://www.eventbrite.es/e/entradas-open-data-day-xalapa-43563266904?utm_term=eventurl_text","nParticipants":50,"organizers":"H. Ayuntamiento de Xalapa "},"geometry":{"type":"Point","coordinates":[-96.937529,19.529435]}},{"type":"Feature","properties":{"place":"Los Angeles","program":"Time to #MapCAsFuture","url":"https://www.eventbrite.com/e/time-to-mapcasfuture-tickets-43372090089","organizers":"Aayushi Jain and Patrick Atwater"},"geometry":{"type":"Point","coordinates":[-118.2373873,34.0407639]}},{"type":"Feature","properties":{"place":"MEDELLIN - COLOMBIA","program":"Taller OSM","url":"http://www.udea.edu.co","nParticipants":120,"organizers":"Grupo GeoSIG UdeA"},"geometry":{"type":"Point","coordinates":[-75.568236,6.268818]}},{"type":"Feature","properties":{"place":"Pasto, Nariño, Colombia","program":"Datos Abiertos del Censo Artesanal de Pasto","url":"http://artefacto.udenar.edu.co","nParticipants":30,"organizers":"Grupo Investigación Artefacto, Universidad de Nariño"},"geometry":{"type":"Point","coordinates":[-77.278701,1.21602]}},{"type":"Feature","properties":{"place":"kyoto,japan","program":"International open data di 2018 in Kyoto(Kyoto Open Datason 2018 - SakePedia & SakeMap)","url":"https://opendatakyoto.connpass.com/event/79064/","nParticipants":30,"organizers":"Open Data Kyoto Practice association"},"geometry":{"type":"Point","coordinates":[135.750982,34.986858]}},{"type":"Feature","properties":{"place":"Singapore, Enabling Village, 20 Lengkok Bahru, S159053","program":"Mapathon: Unlocking Redhill","nParticipants":90,"organizers":"Microsoft, SG Enable, Grab"},"geometry":{"type":"Point","coordinates":[103.814808,1.287233]}},{"type":"Feature","properties":{"place":"Bratislava","program":"OpenData.sk Meetup #12","url":"https://utopia.sk/wiki/x/qocjb","nParticipants":25,"organizers":"OpenData.sk initiative"},"geometry":{"type":"Point","coordinates":[17.101073,48.14482]}},{"type":"Feature","properties":{"place":"Pittsburgh, PA (USA)","program":"THATCamp Pittsburgh 2018","url":"http://pittsburgh2018.thatcamp.org","nParticipants":75,"organizers":"Jessica Otis, Jessica Benner, Susan Grunewald, Abigail Owen, Emma Slayton"},"geometry":{"type":"Point","coordinates":[-79.943688,40.441958]}},{"type":"Feature","properties":{"place":"Grant Park, Atlanta, USA","program":"Zoo Atlanta Entrance Greenspace","url":"https://www.eventbrite.com/e/atlanta-greenspace-hackathon-tickets-42438262987","nParticipants":12,"organizers":"Atlanta Greenspace Hackathon"},"geometry":{"type":"Point","coordinates":[-84.368476,33.73569]}},{"type":"Feature","properties":{"place":"Brasília","program":"Open Data Day 2018 - Brasília","url":"https://www.meetup.com/pt-br/calango-hacker-club/events/248225792/","organizers":"Otávio Carneiro, Calango Hacker Clube"},"geometry":{"type":"Point","coordinates":[-47.893553,-15.794782]}},{"type":"Feature","properties":{"place":"Montevideo- Uruguay","program":"Abrite a los datos. La previa al Open Data Day.","url":"http://datos.gub.uy","nParticipants":55,"organizers":"Oficina de Planeamiento y Presupuesto a través de la Dirección de Gestión y Evaluación (OPP/AGEV) con la Agencia de Gobierno Electrónico y de la Sociedad de la Información  (AGESIC)"},"geometry":{"type":"Point","coordinates":[-56.164531,-34.901113]}},{"type":"Feature","properties":{"place":"Santiago, Chile","program":"OpenDataDay Santiago","url":"http://www.opendataday.cl","nParticipants":120,"organizers":"Programa de Modernización del Sector Público, Ministerio de Hacienda; Observatorio de Gasto Fiscal; DataChile"},"geometry":{"type":"Point","coordinates":[-70.626071,-33.442517]}},{"type":"Feature","properties":{"place":"Inagi, TOKYO, JAPAN","program":"IODD2018 in Inagi","url":"http://goo.gl/wh8a6p","organizers":"Eri Sugiyama"},"geometry":{"type":"Point","coordinates":[139.468592,35.627684]}},{"type":"Feature","properties":{"place":"MITO","program":"International Open Data Day 2018 in Mito","url":"https://codeforibaraki.connpass.com/event/80765/","nParticipants":15,"organizers":"Code for Ibaraki"},"geometry":{"type":"Point","coordinates":[140.466637,36.379581]}},{"type":"Feature","properties":{"place":"Tallinn, Estonia","program":"Avaandmete päev / Open Data Day 2018","url":"http://opendata.ee/opendataday","nParticipants":50,"organizers":"Open Knowledge Estonia, Wikimedia Estonia"},"geometry":{"type":"Point","coordinates":[24.753575,59.436961]}},{"type":"Feature","properties":{"place":"Perm city, Russian Federation","program":"Open Data Workshop for NGOs","url":"https://www.facebook.com/events/222430694969835/","nParticipants":30,"organizers":"Teplitsa. Technologies for Social Good (https://te-st.ru)"},"geometry":{"type":"Point","coordinates":[56.241768,58.013613]}},{"type":"Feature","properties":{"place":"Lugo di Romagna, Italy","program":"“Open Data: un anno dopo”","url":"http://www.labassaromagna.it/unione-dei-comuni/news/open-data-day-vi-edizione","nParticipants":100,"organizers":"Giovanni Baldini, Angela Magnani, Franco Morelli , Istituto Stoppa"},"geometry":{"type":"Point","coordinates":[11.908185,44.415051]}},{"type":"Feature","properties":{"place":"Tallinn","program":"Trashpoints clean-up","nParticipants":2,"organizers":"LetsDoIt! Foundation"},"geometry":{"type":"Point","coordinates":[24.801377,59.422597]}},{"type":"Feature","properties":{"place":"riyadh","program":"OPEN DATA DAY","organizers":"Open Data Day"},"geometry":{"type":"Point","coordinates":[46.675296,24.713552]}},{"type":"Feature","properties":{"place":"Bassan Plaza, 10th Street, 3rd Floor, D Wing Behind Total House, Central Business District, FCT, Abuja, Nigeria","program":"Value of Open Data","url":"http://bit.ly/2ezzh5n","nParticipants":40,"organizers":"Community Park"},"geometry":{"type":"Point","coordinates":[7.482594,9.052321]}},{"type":"Feature","properties":{"place":"Ciudad de Panamá, Panama","program":"Presentación Datos Abiertos del Municipio de Panamá","url":"https://www.instagram.com/p/bftahebdzyj/","nParticipants":100,"organizers":"Municipio de Panamá, Esri Panamá y Kernel Community Think Tank"},"geometry":{"type":"Point","coordinates":[-79.534758,8.97091]}},{"type":"Feature","properties":{"place":"Vorniceni village, Moldova","program":"Promoting Open Data Day","url":"https://www.facebook.com/events/202704846979771/","nParticipants":300,"organizers":"NGO ”Terra-1530” https://www.facebook.com/terra1530/ "},"geometry":{"type":"Point","coordinates":[28.429,47.15]}},{"type":"Feature","properties":{"place":"Minsk","program":"Open Data Day in Minsk","url":"https://www.facebook.com/events/162973987691153/","nParticipants":50,"organizers":"Community \"Open Data.Belarus\""},"geometry":{"type":"Point","coordinates":[27.561524,53.90454]}},{"type":"Feature","properties":{"place":"Aragón (Spain)","program":"Presentación nuevos servicios de Aragón Open Data: Open Analytics Data y nuevas utilidades de Open Social Data ","url":"http://opendata.aragon.es","organizers":"Aragón Open Data"},"geometry":{"type":"Point","coordinates":[-0.891635,41.653433]}},{"type":"Feature","properties":{"place":"Quezon City","program":"Enabling Data for Evidence-Based Public Policy Making","url":"https://web.facebook.com/events/1584816034967179/","nParticipants":5,"organizers":"Datos.PH"},"geometry":{"type":"Point","coordinates":[121.043861,14.676208]}},{"type":"Feature","properties":{"place":"Kabul, Afghanistan","program":"Open Data Day Afghanistan 2018","organizers":"Afghanistan Data Hub, Porsesh Research and Studies Organisation"},"geometry":{"type":"Point","coordinates":[69.1420567,34.5056526]}},{"type":"Feature","properties":{"place":"DLab","program":"Stories that Solve 2.0 - Empowering our stories with Data","nParticipants":25,"organizers":"She Codes for Change"},"geometry":{"type":"Point","coordinates":[39.239939,-6.771316]}},{"type":"Feature","properties":{"place":"She Codes for Change","program":"Stories that Solve 2.0 - Empowering our Stories with Data","nParticipants":25,"organizers":"She Codes for Change"},"geometry":{"type":"Point","coordinates":[39.23958,-6.744791]}},{"type":"Feature","properties":{"place":"Japan Takaoka, Toyama Prefecture　","program":"IT festa@Takaoka","url":"https://www.facebook.com/events/366240290509219/","nParticipants":30,"organizers":"Code for Takaoka"},"geometry":{"type":"Point","coordinates":[137.015495,36.741434]}},{"type":"Feature","properties":{"place":"BonnLAB","program":"Open data Day Bonn 2018","url":"https://codeforbonn.de/open-data-day-bonn-2018/","nParticipants":15,"organizers":"Damian Paderta, Sven Hense"},"geometry":{"type":"Point","coordinates":[7.1199,50.73756]}},{"type":"Feature","properties":{"place":"Dublin, Ireland","program":"Driving Open Transport Data","url":"https://www.eventbrite.ie/e/driving-open-transport-data-tickets-43349968924","nParticipants":50,"organizers":"Derilinx, Department of Public Expenditure and Reform, National Transport Authority, Smart Dublin, Transport Infrastructure Ireland"},"geometry":{"type":"Point","coordinates":[-6.26031,53.349805]}},{"type":"Feature","properties":{"place":"Panama","program":"Hackaton del Día de los Datos Abiertos ","url":"https://www.eventbrite.com/e/hackaton-del-dia-de-los-datos-abiertos-tickets-43585422171","nParticipants":50,"organizers":"IPANDETEC "},"geometry":{"type":"Point","coordinates":[-79.519064,9.029204]}},{"type":"Feature","properties":{"place":"Yaounde-Cameroon","program":"OpenData Journalist","url":"https://web.facebook.com/events/2099840236929592/","nParticipants":30,"organizers":"Digital Rights Access Association, Rigobert Kenmogne, Gabriel Ename"},"geometry":{"type":"Point","coordinates":[11.502075,3.848032]}},{"type":"Feature","properties":{"place":"Santiago de Cali - Colombia","program":"Open Data para el Control Social","url":"https://docs.google.com/forms/d/e/1faipqlsf1lcffvec-t9ijttzf5nu7uy4_6uwaid2mld1-m8qheajdrg/viewform","nParticipants":50,"organizers":"Alcaldía Municipal de Santiago de Cali"},"geometry":{"type":"Point","coordinates":[-76.524849,3.453927]}},{"type":"Feature","properties":{"place":"Bogor, Indonesia","program":"Fiscal Modelling of Extractive Industries ","nParticipants":10,"organizers":"Publish What You Pay Indonesia"},"geometry":{"type":"Point","coordinates":[106.836837,-6.604198]}},{"type":"Feature","properties":{"place":"Aomori, Japan","program":"International Open Data Day 2018 in Aomori","url":"http://www.pref.aomori.lg.jp/sangyo/energy/iodd2018aomori.html","nParticipants":40,"organizers":"Aomori Open Data Consortium"},"geometry":{"type":"Point","coordinates":[140.747365,40.822072]}},{"type":"Feature","properties":{"place":"Bolivia La Paz","program":"Bolivia La Paz","organizers":"Bolivia La Paz"},"geometry":{"type":"Point","coordinates":[null,null]}},{"type":"Feature","properties":{"place":"Tokyo","program":"Tokyo","url":"http://tokyo","organizers":"Tokyo"},"geometry":{"type":"Point","coordinates":[null,null]}},{"type":"Feature","properties":{"place":"Hachinohe, Japan","program":"Hachinohe, Japan","organizers":"Hachinohe, Japan"},"geometry":{"type":"Point","coordinates":[null,null]}},{"type":"Feature","properties":{"place":"Tunis, Lac 2, Level 1","program":"Tunis, Lac 2, Level 1","organizers":"Tunis, Lac 2, Level 1"},"geometry":{"type":"Point","coordinates":[null,null]}},{"type":"Feature","properties":{"place":"Via Tre Monti - Milazzo (ME) - Italia","program":"Via Tre Monti - Milazzo (ME) - Italia","organizers":"Via Tre Monti - Milazzo (ME) - Italia"},"geometry":{"type":"Point","coordinates":[null,null]}},{"type":"Feature","properties":{"place":"Wakayama,Japan","program":"International Open Data Day 2018 in Wakayama","url":"https://wacker.doorkeeper.jp/events/71395","organizers":"International Open Data Day in Wakayama Committee"},"geometry":{"type":"Point","coordinates":[135.396194,33.695979]}},{"type":"Feature","properties":{"place":"Kochi, Japan","program":"Civic Tech and Open Data starting from \"myself\"","url":"https://www.facebook.com/events/225105624725728/","nParticipants":12,"organizers":"TEAM Odekake Tasuke Tai"},"geometry":{"type":"Point","coordinates":[133.543614,33.563476]}},{"type":"Feature","properties":{"place":"Libreville (Gabon)","program":"Journée Internationale de l'Open Data ","url":"https://www.facebook.com/events/2022791251268958/","nParticipants":50,"organizers":"Communauté des Blogueurs du Gabon"},"geometry":{"type":"Point","coordinates":[9.44508,0.424717]}},{"type":"Feature","properties":{"place":"Inagi-shi Tokyo Japan","program":"Inagi-biyori aeru-kai","url":"https://www.facebook.com/events/158662774836847/","nParticipants":60,"organizers":"Inagi-biyori"},"geometry":{"type":"Point","coordinates":[139.506268,35.63033]}},{"type":"Feature","properties":{"place":"Barcelona","program":"Open Data for an active citizenship","url":"http://governobert.gencat.cat/ca/dades_obertes/jornada-dades-obertes-per-a-una-ciutadania-activa/","nParticipants":70,"organizers":"Government of Catalonia"},"geometry":{"type":"Point","coordinates":[2.173403,41.385064]}},{"type":"Feature","properties":{"place":"Saga, Japan","program":"International Opendata Day 2018 in SAGA","url":"http://code4saga.org/archives/625","nParticipants":30,"organizers":"Code for Saga"},"geometry":{"type":"Point","coordinates":[130.2916985,33.2508551]}},{"type":"Feature","properties":{"place":"Cotonou","program":"Promoting open data in agriculture and nutrition","url":"https://ypdint.wordpress.com/open-data/","nParticipants":10,"organizers":"Young Pioneers for Development"},"geometry":{"type":"Point","coordinates":[2.391236,6.370293]}},{"type":"Feature","properties":{"place":"Xalapa, Veracruz, México","program":"Política de Datos Abiertos","url":"http://novusdata.gob.mx/datosabiertos.html","nParticipants":100,"organizers":"Oficina de Programa de Gobierno del Estado de Veracruz (PROGOB), Laboratorio Nacional de Informática Avanzada (LANIA) y Fondo de Empresas de la Universidad Veracruzana (FEUV)"},"geometry":{"type":"Point","coordinates":[-96.910181,19.543775]}},{"type":"Feature","properties":{"place":"Tunis, Tunisia","program":"Open Data Tunisia #onshor","url":"https://www.facebook.com/events/157066364996388/","nParticipants":50,"organizers":"onshor"},"geometry":{"type":"Point","coordinates":[10.196852,36.84305]}},{"type":"Feature","properties":{"place":"INSAT, Tunisia","program":"Open Data Day Tunisia","url":"https://www.facebook.com/events/157066364996388/","nParticipants":50,"organizers":"ONSHOR -  http://onshor.org/"},"geometry":{"type":"Point","coordinates":[10.197645,36.842533]}},{"type":"Feature","properties":{"place":"Belgrade, Serbia","program":"Open Data Week","url":"http://www.ite.gov.rs/aktuelnosti.php","nParticipants":200,"organizers":"Office for IT and e-Government, UNDP, SEE ICT"},"geometry":{"type":"Point","coordinates":[20.448922,44.786568]}},