{"type":"FeatureCollection","features":[{"type":"Feature","properties":{"place":"Louvain-la-Neuve","program":"Open Belgium 2018","organizers":"Open Knowledge Belgium","nParticipants":300,"url":"http://2018.openbelgium.be"},"geometry":{"type":"Point","coordinates":[4.610124,50.668695]}},{"type":"Feature","properties":{"place":"İstanbul","program":"Open Data for Animal Rights","organizers":"Dag Medya","nParticipants":20,"url":"http://www.verigazeteciligi.com"},"geometry":{"type":"Point","coordinates":[28.978359,41.008238]}},{"type":"Feature","properties":{"place":"Accra","program":"Open Accra 2018","organizers":"Mohammed Sadat Abdulai (I may also organise with my affiliate, the Wikimedia Ghana Usergroup)","nParticipants":15},"geometry":{"type":"Point","coordinates":[-0.192016,5.559646]}},{"type":"Feature","properties":{"place":"Wuppertal","program":"Opendataday Wuppertal 2018 (SmartCity)","organizers":"Opendatal","nParticipants":50,"url":"http://opendatal.de/oddw2018"},"geometry":{"type":"Point","coordinates":[7.144814,51.266691]}},{"type":"Feature","properties":{"place":"Salvador - Bahia - Brazil","program":"Open Data Day Salvador ","organizers":"UFBA (NPGA - EAUFBA)","nParticipants":50,"url":"http://www.labpublico.cc"},"geometry":{"type":"Point","coordinates":[-38.5201706,-12.9955844]}},{"type":"Feature","properties":{"place":"Woodstock Bandwidth Barn, Cape Town, South Africa","program":"Cape Town Open Data Hackathon","organizers":"\"Cape Innovation and Technology Initiative\"  and City Of Cape Town","nParticipants":50},"geometry":{"type":"Point","coordinates":[18.446093,-33.926453]}},{"type":"Feature","properties":{"place":"Seoul, Korea","program":"Open Data Day in Korea","organizers":"Open Knowledge Korea"},"geometry":{"type":"Point","coordinates":[126.977969,37.566535]}},{"type":"Feature","properties":{"place":"Brasília Brazil","program":"Dia dos dados abertos DF!","organizers":"PyData Brasília, Calango Hacker Clube","url":"https://www.meetup.com/PyData-Brasilia/"},"geometry":{"type":"Point","coordinates":[-47.890442,-15.756514]}},{"type":"Feature","properties":{"place":"Abu Dhabi, UAE","program":"UAE Hackathon Abu Dhabi - Data for Happiness","organizers":"TRA","nParticipants":200,"url":"https://www.tra.gov.ae/en/media-hub/hackathon.aspx"},"geometry":{"type":"Point","coordinates":[54.394924,24.447324]}},{"type":"Feature","properties":{"place":"Dubai","program":"UAE Hackathon Dubai - Data for Happiness","organizers":"TRA","nParticipants":200,"url":"https://www.tra.gov.ae/en/media-hub/hackathon.aspx"},"geometry":{"type":"Point","coordinates":[55.386487,25.102139]}},{"type":"Feature","properties":{"place":"Sharjah UAE","program":"UAE Hackathon Sharjah, Data for Happiness","organizers":"TRA","nParticipants":200,"url":"https://www.tra.gov.ae/en/media-hub/hackathon.aspx"},"geometry":{"type":"Point","coordinates":[55.478371,25.286771]}},{"type":"Feature","properties":{"place":"Ajman, UAE","program":"UAE Hackathon Ajman & Umm Al Quwain - Data for Happiness","organizers":"UAE TRA","nParticipants":200,"url":"https://www.tra.gov.ae/en/media-hub/hackathon.aspx"},"geometry":{"type":"Point","coordinates":[55.508107,25.412256]}},{"type":"Feature","properties":{"place":"Fujairah, UAE","program":"UAE Hackathon Fujairah, Data for Happiness ","organizers":"UAE TRA","nParticipants":200,"url":"https://www.tra.gov.ae/en/media-hub/hackathon.aspx"},"geometry":{"type":"Point","coordinates":[56.292898,25.130947]}},{"type":"Feature","properties":{"place":"Ras Al Khaimah, UAE","program":"UAE Hackathon, Ras Al Khaimah, Data for Happiness","organizers":"UAE TRA","nParticipants":200,"url":"https://www.tra.gov.ae/en/media-hub/hackathon.aspx"},"geometry":{"type":"Point","coordinates":[55.992929,25.788867]}},{"type":"Feature","properties":{"place":"Hong Kong","program":"Open Data Day 2018 Hong Kong","organizers":"Open Source Hong Kong","nParticipants":40,"url":"https://opensource.hk/open-data-day-2018-hong-kong/"},"geometry":{"type":"Point","coordinates":[114.109497,22.396428]}},{"type":"Feature","properties":{"place":"JODHPUR, RAJASTHAN , INDIA","program":"ODDJODHPUR","organizers":"FossYatra","nParticipants":200,"url":"http://fossyatra.wordpress.com"},"geometry":{"type":"Point","coordinates":[72.983697,26.278159]}},{"type":"Feature","properties":{"place":"Jodhpur ,Rajasthan ,India","program":"ODD-JODHPUR","organizers":"FOSSYATRA","nParticipants":200,"url":"http://fossyatra.wordpress.com"},"geometry":{"type":"Point","coordinates":[72.98444,26.285511]}},{"type":"Feature","properties":{"place":"La Paz, Bolivia","program":"ODD Bolivia","organizers":"Willmar A. Pimentel","nParticipants":50,"url":"https://www.facebook.com/boliviatechhub/"},"geometry":{"type":"Point","coordinates":[-68.119031,-16.515141]}},{"type":"Feature","properties":{"place":"Maceio Al, Brazil","program":"Open Data Day Maceio (oddmcz)","organizers":"Melquesedeque Balbino da Rocha, Hudson Gomes","nParticipants":80,"url":"https://doity.com.br/oddmcz2018"},"geometry":{"type":"Point","coordinates":[-35.702164,-9.652412]}},{"type":"Feature","properties":{"place":"Mexico City","program":"Taller de análisis de Datos Abiertos con Python ","organizers":"Alberto Rodríguez Sánchez, Alejandra Rodríguez Sánchez","nParticipants":25,"url":"https://www.meetup.com/Soul-Tlamaqui/events/"},"geometry":{"type":"Point","coordinates":[-99.186973,19.503419]}},{"type":"Feature","properties":{"place":"Kampala - Uganda ","program":"https://www.meetup.com/NetSquared-Uganda/events/246476636/","organizers":"Fund Africa Inc, Net-squared Kampala,  Alwenyi Catherine Cassidy +256 700 551037, catherinecassidy06@gmail.com, infofundafrica@gmail.com","nParticipants":50,"url":"https://www.meetup.com/NetSquared-Uganda/events/246476636/"},"geometry":{"type":"Point","coordinates":[32.585347,0.3456]}},{"type":"Feature","properties":{"place":"Tampere, Finland","program":"Mindtrek 2018","organizers":"Centre for Open Systems and Solutions - COSS","nParticipants":900,"url":"http://www.mindtrek.org/2018"},"geometry":{"type":"Point","coordinates":[23.707294,61.510333]}},{"type":"Feature","properties":{"place":"Yaounde ","program":"IMPACTING CAMEROONIANS TO ADVANCE OPEN RESEARCH DATA ","organizers":"NETSQUARED YAOUNDE CAMEROON","nParticipants":600,"url":"https://www.meetup.com/netsquaredyaounde-technology-Hub/events/246288384/"},"geometry":{"type":"Point","coordinates":[11.502075,3.848032]}},{"type":"Feature","properties":{"place":"Antananarivo","program":"Open Data for Citizens","organizers":"MAdagascar Initiatives for Digital Innovation"},"geometry":{"type":"Point","coordinates":[47.53613,-18.91368]}},{"type":"Feature","properties":{"place":"Antananarivo,Madagascar","program":"Open Data for Citizens","organizers":"MAdagascar Initiatives for Digital Innovation"},"geometry":{"type":"Point","coordinates":[47.507905,-18.87919]}},{"type":"Feature","properties":{"place":"Ibadan, Nigeria ","program":"Citizen Participatory Audit for Public Accountability Using Open Data","organizers":"Paradigm Leadership Support Initiative (PLSI)","nParticipants":50,"url":"http://www.plsinitiative.org"},"geometry":{"type":"Point","coordinates":[3.948855,7.37881]}},{"type":"Feature","properties":{"place":"Mexico City, Mexico","program":"Open Data Day 2018 - Ciudad de México","organizers":"SocialTIC","nParticipants":200,"url":"http://socialtic.org/ODD2018"},"geometry":{"type":"Point","coordinates":[-99.1828464,19.4120848]}},{"type":"Feature","properties":{"place":"Panama","program":"Datos y Pintas III ","organizers":"IPANDETEC - Datos Abiertos Panamá","nParticipants":50,"url":"http://www.ipandetec.org"},"geometry":{"type":"Point","coordinates":[-80.782127,8.537981]}},{"type":"Feature","properties":{"place":"Lagos, Nigeria","program":"Data Science Lagos ","organizers":"Akin-Awokoya Emmanuel (InvestXD), Oluwole Oyekanmi(Quantextive)","nParticipants":50},"geometry":{"type":"Point","coordinates":[3.446852,6.443395]}},{"type":"Feature","properties":{"place":"Nigeria","program":"Open Data Day-Port Harcourt","organizers":"DotsConnect"},"geometry":{"type":"Point","coordinates":[7.005287,4.832536]}},{"type":"Feature","properties":{"place":"Brussels, Belgium","program":"Towards Clean Air with Open Data","organizers":"Open Knowledge Belgium","nParticipants":100,"url":"https://cleanairwithopendata.eventbrite.co.uk"},"geometry":{"type":"Point","coordinates":[4.357473,50.845512]}},{"type":"Feature","properties":{"place":"Johannesburg ","program":"Open Data Day Johannesburg","organizers":"Geekulcha, ICRD Group Foundation","nParticipants":50,"url":"http://geekulcha.com/odisc"},"geometry":{"type":"Point","coordinates":[28.04,-26.20518]}},{"type":"Feature","properties":{"place":"Lomé, Togo","program":"Open Data Day 2018, Lomé-Togo","organizers":"Minodoo","nParticipants":100,"url":"https://www.facebook.com/events/1622089621183937/"},"geometry":{"type":"Point","coordinates":[1.1708,6.1765]}},{"type":"Feature","properties":{"place":"Abu Dhabi, UAE","program":"UAE Data for Happiness","organizers":"Katherine Townsend, Hessa Al Shamsi","nParticipants":200,"url":"http://hackathon.government.ae"},"geometry":{"type":"Point","coordinates":[55.478371,25.286771]}},{"type":"Feature","properties":{"place":"Moscow","program":"Moscow Open data day","organizers":"NGO \"Infoculture\" (https://www.infoculture.ru/)","nParticipants":300,"url":"http://msk.opendataday.ru"},"geometry":{"type":"Point","coordinates":[37.617499,55.751979]}},{"type":"Feature","properties":{"place":"Potsdam","program":"Open Data Day","organizers":"LHP / OK Lab Potsdam","nParticipants":50,"url":"http://www.oklab-potsdam.de"},"geometry":{"type":"Point","coordinates":[13.05793,52.4054]}},{"type":"Feature","properties":{"place":"Denton, Texas","program":"Denton Open Data Day 2018","organizers":"Smart Denton Lab","nParticipants":70,"url":"https://www.eventbrite.com/e/denton-open-data-day-2018-tickets-42316376421?ref=estw"},"geometry":{"type":"Point","coordinates":[-97.124917,33.214042]}},{"type":"Feature","properties":{"place":"Join us online to help protect girls from FGM in Tanzania via mapping","program":"Crowd2Map","organizers":"Janet Chapman, Crowd2Map","nParticipants":1000,"url":"https://www.eventbrite.co.uk/e/online-mapathon-for-ope-data-day-map-tanzania-to-help-end-fgm-tickets-38118498455"},"geometry":{"type":"Point","coordinates":[34.7113,-1.7054]}},{"type":"Feature","properties":{"place":"Dusseldorf, Germany","program":"Open Data Day Düsseldorf 2018 (#ODDD18)","organizers":"OK Lab Düsseldorf, Heinrich-Heine-Universität Abteilung für Informationswissenschaft, Stadt Düsseldorf Open Data","nParticipants":50,"url":"https://codefordus.nrw"},"geometry":{"type":"Point","coordinates":[6.78099,51.22628]}},{"type":"Feature","properties":{"place":"djelfa","program":"Djelfa Developers HUB","organizers":"Code Club Djelfa","nParticipants":40,"url":"https://www.facebook.com/events/1683603105021252"},"geometry":{"type":"Point","coordinates":[3.263912,34.657669]}},{"type":"Feature","properties":{"place":"Guatemala City, Guatemala","program":"Open Data Day en Guatemala","organizers":"EscueladeDatos.org","nParticipants":50,"url":"http://escueladedatos.org"},"geometry":{"type":"Point","coordinates":[-90.522713,14.628434]}},{"type":"Feature","properties":{"place":"Burlington, USA","program":"Vermont Open Data Day","organizers":"Code for BTV","nParticipants":40,"url":"http://meetu.ps/e/DNBT0/z0wCb/f"},"geometry":{"type":"Point","coordinates":[-73.212072,44.475882]}},{"type":"Feature","properties":{"place":"Windhoek, Namibia","program":"4th Open Data Innovation Hackathon","organizers":"Open Data Namibia and Namibia Business Innovation Institute","nParticipants":100,"url":"https://www.facebook.com/events/330494460768616/"},"geometry":{"type":"Point","coordinates":[17.0750228,-22.5672331]}},{"type":"Feature","properties":{"place":"Abidjan - Côte d'Ivoire","program":"A la découverte de l'Open Data...","organizers":"Communauté Open Data Côte d'Ivoire","nParticipants":20},"geometry":{"type":"Point","coordinates":[-4.01266,5.30966]}},{"type":"Feature","properties":{"place":"Buenos Aires","program":"DataCamp ","organizers":"Fundación Conocimiento Abierto @okfnar"},"geometry":{"type":"Point","coordinates":[-58.381559,-34.603684]}},{"type":"Feature","properties":{"place":"Ciudad de Córdona","program":"DataCamp ","organizers":"Fundación Conocimiento Abierto Open Data Córdoba "},"geometry":{"type":"Point","coordinates":[-64.188776,-31.420083]}},{"type":"Feature","properties":{"place":"Veracruz ","program":"Celebración del Día Internacional de Datos Abiertos","organizers":"H. Ayuntamiento de Veracruz","nParticipants":80},"geometry":{"type":"Point","coordinates":[-96.134224,19.173773]}},{"type":"Feature","properties":{"place":"Lagos -  Nigeria","program":"ITRealms Open Data Day (T-ODD) 2018","organizers":"DigitalSENSE Africa Media","nParticipants":150,"url":"https://www.facebook.com/events/401506173623306/?acontext={\"action_history\":[{\"surface\":\"dashboard\",\"mechanism\":\"calendar_tab_event\",\"extra_data\":\"{\\\"dashboard_filter\\\":\\\"upcoming\\\"}\"}],\"ref\":2,\"source\":2}"},"geometry":{"type":"Point","coordinates":[3.379206,6.524379]}},{"type":"Feature","properties":{"place":"Kinshasa, democratic republic of Congo","program":"Tracking Public Money in DRCongo","organizers":"Narcisse Mbunzama, DRCongo Open Data Association","nParticipants":300},"geometry":{"type":"Point","coordinates":[15.266293,-4.441931]}},{"type":"Feature","properties":{"place":"Taipei, Taiwan","program":"g0v hackathon","organizers":"g0v jothon","nParticipants":120,"url":"http://hack.g0v.tw"},"geometry":{"type":"Point","coordinates":[121.614506,25.04101]}},{"type":"Feature","properties":{"place":"FabLab / Coworking Heilbronn","program":"Open Data Day 2018 Heilbronn\n","organizers":"Adrian Stabiszewski","nParticipants":25,"url":"https://www.meetup.com/codeforhn/events/246402098/"},"geometry":{"type":"Point","coordinates":[9.2203,49.139]}},{"type":"Feature","properties":{"place":"San Juan, Metro Manila, PH","program":"Open Day 2018 in Manila, Philippines","organizers":"The MapAm❤re Initiative","nParticipants":40,"url":"https://ti.to/mapamore/odd2018"},"geometry":{"type":"Point","coordinates":[121.04008,14.59444]}},{"type":"Feature","properties":{"place":"Rosario, Argentina","program":"Datos Abiertos Rosario 2018","organizers":"Acción Colectiva","nParticipants":300,"url":"http://www.accioncolectiva.net/ODD18"},"geometry":{"type":"Point","coordinates":[-60.650539,-32.944243]}},{"type":"Feature","properties":{"place":"Trento","program":"Open Data HackaBot Trentino","organizers":"Provincia Autonoma di Trento (dati.trentino.it)","nParticipants":100,"url":"https://www.odhb2018.net"},"geometry":{"type":"Point","coordinates":[11.121749,46.074779]}},{"type":"Feature","properties":{"place":"Riga, Latvia","program":"Dattack","organizers":"Staro Riga, Metasphere, Krisjanis Rijnieks","nParticipants":100,"url":"http://dattack.lv/en/"},"geometry":{"type":"Point","coordinates":[24.106773,56.955496]}},{"type":"Feature","properties":{"place":"Dushanbe, Tajikistan","program":"Open Data Day Tajikistan 2018 (#ODDT18)","organizers":"OpenData.TJ","nParticipants":30,"url":"http://opendata.tj"},"geometry":{"type":"Point","coordinates":[68.790207,38.571522]}},{"type":"Feature","properties":{"place":"Niamey (Niger)","program":"Training researchers on skills and competencies for practicing open science","organizers":"Abdou Moumouni University (Contact person Dr Ibrahim Sidi Zakari)","nParticipants":40,"url":"https://goo.gl/vBXXP4"},"geometry":{"type":"Point","coordinates":[2.092724,13.502607]}},{"type":"Feature","properties":{"place":"Manila Philippines","program":"Open Data Day Philippines (ODDPH2018)","organizers":"Open Knowledge Philippines","nParticipants":100},"geometry":{"type":"Point","coordinates":[121.021573,14.562006]}},{"type":"Feature","properties":{"place":"Louisville, KY USA","program":"Open Data Day","organizers":"Civic Data Alliance","nParticipants":75},"geometry":{"type":"Point","coordinates":[-85.758456,38.252665]}},{"type":"Feature","properties":{"place":"Miami, FL, USA","program":"International Open Data Day","organizers":"Code for Miami, Florida International University","nParticipants":100,"url":"https://www.eventbrite.com/e/international-open-data-day-tickets-42648520874"},"geometry":{"type":"Point","coordinates":[-80.19179,25.76168]}},{"type":"Feature","properties":{"place":"Porto, Portugal","program":"Open Data Day 2018","organizers":"Transparência Hackday Portugal","nParticipants":40,"url":"http://www.transparenciahackday.org"},"geometry":{"type":"Point","coordinates":[-8.616269,41.151539]}},{"type":"Feature","properties":{"place":"Atlanta, Georgia, USA","program":"Atlanta Greenspace Hackathon","organizers":"Code for Atlanta","url":"https://www.eventbrite.com/e/atlanta-greenspace-hackathon-tickets-42438262987"},"geometry":{"type":"Point","coordinates":[-84.365967,33.772517]}},{"type":"Feature","properties":{"place":"Cologne, Germany","program":"Open Data Day Cologne 2018","organizers":"hack.institute & OK Lab Köln"},"geometry":{"type":"Point","coordinates":[6.945715,50.930282]}},{"type":"Feature","properties":{"place":"Jaffna ","program":"OSM Mapping in the Northern Area ","organizers":"OSM Community Sri Lanka ","nParticipants":25,"url":"https://www.openstreetmap.org/search?query=jaffna"},"geometry":{"type":"Point","coordinates":[80.080376,9.568251]}},{"type":"Feature","properties":{"place":"Dar es salaam, Tanzania","program":"OPEN DATA AND STATISTICAL LITERACY IN TANZANIA","organizers":"\nINTERNATIONAL STATISTICAL LITERACY PROJECT (ISLP)-TANZANIA\n\n(ELIEZA PAUL -COUNTRY COORDINATOR- TANZANIA )\n\n","nParticipants":100,"url":"https://groups.google.com/d/msgid/dlabopendata/CA%2BE%2BaW7V3Kpp7WGcNNRC5xHOiXBjjJTGd3DxrNG20xvAbuMfuw%40mail.gmail.com."},"geometry":{"type":"Point","coordinates":[39.2083,-6.792]}},{"type":"Feature","properties":{"place":"Kyiv, Ukraine","program":"Open Data Day Kyiv","organizers":"1991 Open Data Incubator (SocialBoost)","nParticipants":100,"url":"https://www.facebook.com/events/158940604889761/"},"geometry":{"type":"Point","coordinates":[30.5234,50.4501]}},{"type":"Feature","properties":{"place":"Münster, Germany","program":"Offene Daten - Was wünschen sich die Bürgerinnen und Bürger der Stadt Münster?","organizers":"CodeForMünster","nParticipants":40,"url":"http://codeformuenster.org/opendataday/"},"geometry":{"type":"Point","coordinates":[7.62836,51.961834]}},{"type":"Feature","properties":{"place":"Pasto, Colombia","program":"Lanzamiento periódico \"Le tengo el dato\" (Visualización de datos abiertos)","organizers":"Gobierno Abierto de Nariño (Gobernación de Nariño)","url":"http://gana.narino.gov.co"},"geometry":{"type":"Point","coordinates":[-77.2776714,1.2143119]}},{"type":"Feature","properties":{"place":"Karlsruhe, Germany","program":"Open Data Day 2018 - Karlsruhe","organizers":"OK Lab Karlsruhe","url":"https://www.meetup.com/de-DE/OK-Lab-Karlsruhe/events/247346492/"},"geometry":{"type":"Point","coordinates":[8.382729,49.001436]}},{"type":"Feature","properties":{"place":"Curitiba","program":"Movimenta Curitiba","organizers":"Movimenta Curitiba","nParticipants":5000,"url":"https://web.facebook.com/events/185492678712581/"},"geometry":{"type":"Point","coordinates":[-49.253668,-25.460181]}},{"type":"Feature","properties":{"place":"United Kingdom","program":"Celebrating the Open Data of Death","organizers":"Free UK Genealogy"},"geometry":{"type":"Point","coordinates":[-3.120117,53.973859]}},{"type":"Feature","properties":{"place":"Raleigh NC USA","program":"NC Open Pass Datajam","organizers":"Open Raleigh Brigade and NC Data4Good","nParticipants":200},"geometry":{"type":"Point","coordinates":[-78.674,35.7719]}},{"type":"Feature","properties":{"place":"San Francisco California United States","program":"Open Data Day San Francisco","organizers":"Open Data Bay Area, Lisa Green","nParticipants":100,"url":"https://www.eventbrite.com/e/code-for-san-francisco-open-data-day-2018-tickets-42826162204"},"geometry":{"type":"Point","coordinates":[-122.397658,37.77873]}},{"type":"Feature","properties":{"place":"Panama","program":"Hackaton: liberando datos de contratos de tecnología en Panamá","organizers":"IPANDETEC","nParticipants":100,"url":"http://www.ipandetec.org"},"geometry":{"type":"Point","coordinates":[79.5201,8.9936]}},{"type":"Feature","properties":{"place":"Dhaka, Bangladesh","program":"Dhaka OpenDataDay Mapathon with BHOOTs @Pathao","organizers":"Bangladesh Humanitarian OpenStreetMap Operations Team (BHOOT) & Pathao Ltd","nParticipants":75,"url":"https://www.facebook.com/groups/ask.bhoot/"},"geometry":{"type":"Point","coordinates":[90.401518,23.793687]}},{"type":"Feature","properties":{"place":"Tirana, Albania","program":"Follow the Money, tell us where does  my money go?","organizers":"Albanian Institute of Science","nParticipants":50,"url":"http://www.ais.al"},"geometry":{"type":"Point","coordinates":[19.818698,41.327546]}},{"type":"Feature","properties":{"place":"Mar del Plata, Argentina","program":"Datos Abiertos y Ciudadania","organizers":"Escuela de Fiscales","nParticipants":120,"url":"http://escueladefiscales.com/index.php/opendataday/"},"geometry":{"type":"Point","coordinates":[-57.542611,-38.005477]}},{"type":"Feature","properties":{"place":"Colombia / Quindio / Armenia","program":"Día de los Datos Abiertos (Armenia)","organizers":"Tupale.co","nParticipants":15,"url":"https://tupale.co/e84"},"geometry":{"type":"Point","coordinates":[-75.672809,4.535741]}},{"type":"Feature","properties":{"place":"Chiba, Japan","program":"Civic Power Battle in IODD 2018","organizers":"Code for Chiba","nParticipants":100,"url":"https://iodd2018chiba.peatix.com"},"geometry":{"type":"Point","coordinates":[140.119872,35.608677]}},{"type":"Feature","properties":{"place":"Mirabel, Ardèche, France","program":"Hackathon Ardèche","organizers":"Département de l'Ardèche","nParticipants":50,"url":"http://www.ardeche.fr/1253-open-data.htm"},"geometry":{"type":"Point","coordinates":[4.498617,44.607301]}},{"type":"Feature","properties":{"place":"Belgrade, Serbia","program":"Open Data Week","organizers":"Government of Serbia - Office for IT and e-Government, UNDP Serbia"},"geometry":{"type":"Point","coordinates":[20.464635,44.800078]}},{"type":"Feature","properties":{"place":"Cape Coast,(UCC Wascal Center) Ghana","program":"Open mapping","organizers":"UCC YouthMappers","nParticipants":45},"geometry":{"type":"Point","coordinates":[-1.291918,5.119182]}},{"type":"Feature","properties":{"place":"Tulsa, OK USA","program":"Tulsa Open Data Day","organizers":"Code for Tulsa","nParticipants":30,"url":"https://www.eventbrite.com/e/tulsa-open-data-day-tickets-42770267020"},"geometry":{"type":"Point","coordinates":[-95.958457,36.0864021]}},{"type":"Feature","properties":{"place":"Lagos, Nigeria","program":"ISpatial Open Data","organizers":"ISpatial Technologies","nParticipants":50,"url":"http://ispatial.space"},"geometry":{"type":"Point","coordinates":[3.568616,6.472516]}},{"type":"Feature","properties":{"place":"Minna Niger State Nigeria ","program":"ISODAF Open Data Day 2018","organizers":"Initiative for Social Development in Africa (iSODAF)","nParticipants":90},"geometry":{"type":"Point","coordinates":[6.546316,99.583555]}},{"type":"Feature","properties":{"place":"Sokoto State Nigeria","program":"Open Sokoto 2018","organizers":"Engage Diaspora Foundation Inc","nParticipants":120},"geometry":{"type":"Point","coordinates":[5.247552,13.005873]}},{"type":"Feature","properties":{"place":"Minna Nigeria","program":"Open Niger","organizers":"Engage Diaspora Foundation Inc ","nParticipants":100},"geometry":{"type":"Point","coordinates":[6.546316,9.583555]}},{"type":"Feature","properties":{"place":"Hermosillo, Sonora, Mexico","program":"Hermosillo Open Data Fest","organizers":"Alejandro Salcido","nParticipants":100,"url":"https://www.hermosillo.gob.mx"},"geometry":{"type":"Point","coordinates":[-110.955919,29.072967]}},{"type":"Feature","properties":{"place":"Navi Mumbai","program":"UXO OpenDataDay Celebration","organizers":"UXO-INDIA","nParticipants":30,"url":"https://www.eventbrite.com/e/uxo-opendataday-celebration-tickets-42778352203"},"geometry":{"type":"Point","coordinates":[73.127985,18.990546]}},{"type":"Feature","properties":{"place":"Bangkok, Thailand","program":"International Opendata Day : Bangkok","organizers":"Social Technology Institute ( http://socialtech.or.th )","nParticipants":200,"url":"http://opendataday.in.th"},"geometry":{"type":"Point","coordinates":[100.543399,13.751161]}},{"type":"Feature","properties":{"place":"Kigoma Ujiji Municipal ","program":"Open data day","organizers":"KDI","nParticipants":30,"url":"http://open/data%20for%20transparency%20and%20accountability"},"geometry":{"type":"Point","coordinates":[29.674561,-4.91148]}},{"type":"Feature","properties":{"place":"Uganda, Mbarara","program":"MUST MAPATHON","organizers":"MUST Street Mappers","nParticipants":20,"url":"https://goo.gl/forms/INoZ6A5H2bQ3mi3d2"},"geometry":{"type":"Point","coordinates":[30.657864,-0.624342]}},{"type":"Feature","properties":{"place":"Kampala","program":"Mapathon to Strengthen and Expand the Network","organizers":"MapUganda","nParticipants":20,"url":"http://mapuganda.org/recent-activities"},"geometry":{"type":"Point","coordinates":[32.594,0.34184]}},{"type":"Feature","properties":{"place":"Sherubtse College, Kanglung, Eastern Bhutan","program":"Mapping social infrastructure in Kanglung using OpenStreetMapping ","organizers":"Geographical Society, Sherubtse College, Royal University of Bhutan","url":"https://www.facebook.com/sherubtse.mappers/"},"geometry":{"type":"Point","coordinates":[91.523688,27.286715]}},{"type":"Feature","properties":{"place":"Havana, Cuba","program":"¡Vamos a mapear La Habana!","organizers":"OSM Cuban Community","nParticipants":30},"geometry":{"type":"Point","coordinates":[-82.366596,23.113592]}},{"type":"Feature","properties":{"place":"Kaduna, Nigeria","program":"Public Money, Open Data, Kaduna","organizers":"CoLab","nParticipants":40},"geometry":{"type":"Point","coordinates":[7.416505,10.510464]}},{"type":"Feature","properties":{"place":"New York City, USA","program":"NYC School of Data 2018","organizers":"BetaNYC","nParticipants":200,"url":"https://schoolofdata.nyc"},"geometry":{"type":"Point","coordinates":[-73.990707,40.74218]}},{"type":"Feature","properties":{"place":"Puebla","program":"CiudaDatos","organizers":"Gobierno del estado de Puebla y Epicentro Inefable A.C.","nParticipants":100,"url":"http://por/definir"},"geometry":{"type":"Point","coordinates":[-98.206201,19.041289]}},{"type":"Feature","properties":{"place":"Akure, Nigeria","program":"Building a resilience Akure City, with open mapping ","organizers":"Youthmappers FUTA","nParticipants":60},"geometry":{"type":"Point","coordinates":[5.137,7.3043]}},{"type":"Feature","properties":{"place":"Conakry, Guinea","program":"The Open Mapping OpenStreetMap (OSM): which benefits for students?","organizers":"The OSM Guinea community ","nParticipants":55},"geometry":{"type":"Point","coordinates":[-13.58084,9.67731]}},{"type":"Feature","properties":{"place":"Newport, RI, USA","program":"Newport Open Data Day","organizers":"Newport Data Project","url":"https://attending.io/events/newport-open-data-day"},"geometry":{"type":"Point","coordinates":[-71.312829,41.490102]}},{"type":"Feature","properties":{"place":"Nashik","program":"Oprn Data Day Celebration","organizers":"Albedo Foundation, Naksha","nParticipants":40,"url":"https://docs.google.com/forms/d/e/1FAIpQLSdz1DORJHhMPUln5AFcDmwfCXwc-r0fSjeH2K7VWM04t2Fqeg/viewform?c=0&w=1"},"geometry":{"type":"Point","coordinates":[73.8205142,20.0136043]}},{"type":"Feature","properties":{"place":"Lusaka, Zambia","program":"The power of open data","organizers":"OpenStreetMap Zambia","nParticipants":30},"geometry":{"type":"Point","coordinates":[28.322817,-15.387526]}},{"type":"Feature","properties":{"place":"Monze, Zambia","program":"Open data for development planning","organizers":"OpenStreetMap Zambia","nParticipants":40},"geometry":{"type":"Point","coordinates":[27.473257,-16.280321]}},{"type":"Feature","properties":{"place":"Khulna - 9208, Bangladesh","program":"Open Data Day : Khulna University","organizers":"Skill Development Klub - KU","nParticipants":100,"url":"http://still/waiting%20for%20the%20confirmation%20of%20mini-grants%20and%20that%27s%20why%20didn%27t%20created%20the%20event%20yet."},"geometry":{"type":"Point","coordinates":[89.53239,22.803312]}},{"type":"Feature","properties":{"place":"Kurigram","program":"Digitizing Municipality Level Data in Kurigram (Sadar Thana, Kurigram, Bangladesh)","organizers":"Shepro Foundation","nParticipants":50},"geometry":{"type":"Point","coordinates":[89.6295,25.8072]}},{"type":"Feature","properties":{"place":"Kurigram, Bangladesh","program":"Kurigram Open Data Day Mapathon with Shepro Foundation","organizers":"Shepro Foundation","nParticipants":50,"url":"https://web.facebook.com/events/149398979198513/"},"geometry":{"type":"Point","coordinates":[89.6295,25.8072]}},{"type":"Feature","properties":{"place":"Bhubaneswar","program":"Open Data Day 2018 Bhubaneswar","organizers":"O Foundation, Odia Wikimedians User Group, Sambad Group","nParticipants":10,"url":"https://theofdn.org/open-data-day-2018-bhubaneswar/"},"geometry":{"type":"Point","coordinates":[85.82454,20.296059]}},{"type":"Feature","properties":{"place":"El Salvador","program":"#DatosAbiertos El Salvador 2018","organizers":"DatosElSalvador"},"geometry":{"type":"Point","coordinates":[-89.228966,13.694325]}},{"type":"Feature","properties":{"place":"İstanbul","program":"Open Data For Fair Public Transportation in İstanbul","organizers":"Dağ Medya","nParticipants":20,"url":"http://www.verigazeteciligi.com/2018-acik-veri-gunu-open-data-day-2018-etkinlik-kayitlari-basladi/"},"geometry":{"type":"Point","coordinates":[28.978359,41.008238]}},{"type":"Feature","properties":{"place":"Munich","program":"Open Data Hackathon Munich","organizers":"Landeshauptstadt München, CCC","url":"https://www.meetup.com/de-DE/code-for-muenchen/events/247507806/"},"geometry":{"type":"Point","coordinates":[11.608375,48.123849]}},{"type":"Feature","properties":{"place":"Salvador, Brazil","program":"Open Data Day - Dia De Dados Abertos","organizers":"Raul Hacker Club","nParticipants":15,"url":"http://raulhc.cc/Agenda.2018-03-03-OpenDataDay"},"geometry":{"type":"Point","coordinates":[-38.4944865,-13.0108746]}},{"type":"Feature","properties":{"place":"Buenos Aires","program":"Open Data Day Buenos Aires","organizers":"Fundación Conocimiento Abierto"},"geometry":{"type":"Point","coordinates":[-58.381559,-34.603684]}},{"type":"Feature","properties":{"place":"Ankara","program":"Open Data Advocacy for Civil Society","organizers":"www.avvg.org.tr","nParticipants":10,"url":"https://www.avvg.org.tr/yazilar/286-2018-acik-veri-gunu-etkinlik-kayitlari-basladi.html"},"geometry":{"type":"Point","coordinates":[32.859742,39.933363]}},{"type":"Feature","properties":{"place":"Mwanza, Tanzania","program":"Open Data and Open Mapping Training Event","organizers":"Crowd2Map, Data Zetu and Humanitarian OpenStreetMap Tanzania","nParticipants":100,"url":"https://www.eventbrite.co.uk/e/open-data-day-openstreetmap-training-event-tickets-42906056169"},"geometry":{"type":"Point","coordinates":[32.338,-2.215]}},{"type":"Feature","properties":{"place":"Jiutepec, Morelos, México","program":"PRIMER HACKATON SOBRE RESIDUOS SÓLIDOS MUNICIPALES","organizers":"Gobierno de Jiutepec, INEGI, UPEMOR e IMIPE"},"geometry":{"type":"Point","coordinates":[-99.137814,18.892847]}},{"type":"Feature","properties":{"place":"São Paulo, Brazil","program":"Dia de Dados Abertos na Câmara","organizers":"Gabinete56, LabHacker","nParticipants":50,"url":"https://www.eventbrite.com/e/dia-dos-dados-abertos-na-camara-tickets-42910869566"},"geometry":{"type":"Point","coordinates":[-46.641263,-23.550594]}},{"type":"Feature","properties":{"place":"Bogota, Colombia","program":"Día De Datos Abiertos Despacio","organizers":"www.despacio.org","nParticipants":30,"url":"http://www.despacio.org/2018/02/08/dia-de-datos-abiertos-despacio/"},"geometry":{"type":"Point","coordinates":[-74.058309,4.669655]}},{"type":"Feature","properties":{"place":"Cleveland, Ohio, USA","program":"Data Days CLE ","organizers":"Cleveland Civic Tech and Open Data Collaborative","nParticipants":100,"url":"http://datadayscle.org"},"geometry":{"type":"Point","coordinates":[-81.644,41.5043]}},{"type":"Feature","properties":{"place":"San Francisco, California, United States of America","program":"Open Data Day 2018","organizers":"Code for San Francisco","nParticipants":100,"url":"https://www.eventbrite.com/e/code-for-san-francisco-open-data-day-2018-tickets-42826162204"},"geometry":{"type":"Point","coordinates":[-122.413649,37.775641]}},{"type":"Feature","properties":{"place":"Seoul","program":"Open Data Day in Korea","organizers":"Open Knowledge Korea","nParticipants":100,"url":"http://okfn.kr"},"geometry":{"type":"Point","coordinates":[126.986,37.541]}},{"type":"Feature","properties":{"place":"Barcelona, Spain","program":"Reutilitzem Dades","organizers":"ideograma, Iniciativa Barcelona Open Data","nParticipants":50,"url":"http://www.opendataday.cat"},"geometry":{"type":"Point","coordinates":[2.154301,41.382863]}},{"type":"Feature","properties":{"place":"Sao Paulo","program":"Dados Abertos e Feminicídios","organizers":"Artigo 19","nParticipants":20},"geometry":{"type":"Point","coordinates":[-46.633309,-23.55052]}},{"type":"Feature","properties":{"place":"Owerri, Nigeria","program":"Empowering young girls to make informed decision about their sexual health and well being.","organizers":"InspireIT"},"geometry":{"type":"Point","coordinates":[7.013979,5.489659]}},{"type":"Feature","properties":{"place":"Tirana, Albania","program":"Tirana Open Source Geoportal Hackathon","organizers":"OpenLabs Hackerspace","nParticipants":25,"url":"http://www.openlabs.cc"},"geometry":{"type":"Point","coordinates":[19.828938,41.321553]}},{"type":"Feature","properties":{"place":"Bogota","program":"Día De Datos Abiertos Despacio","organizers":"www.despacio.org","nParticipants":30,"url":"http://www.despacio.org/2018/02/08/dia-de-datos-abiertos-despacio/"},"geometry":{"type":"Point","coordinates":[-74.058305,4.669655]}},{"type":"Feature","properties":{"place":"Port Harcourt","program":"Let's Map our World:How to map with Openstreetmap","organizers":"UniquMappersTeam(UMT)University of Port Harcourt","nParticipants":100,"url":"https://web.facebook.com/uniquemappersteamportharcourt/"},"geometry":{"type":"Point","coordinates":[6.937827,4.907623]}},{"type":"Feature","properties":{"place":"Oyo,Nigeria","program":"Open Data Mapping Using OpenstreetMap","organizers":"OyoMappersTeam(OMT)Federal School of Surveying,Oyo,Nigeria","nParticipants":70,"url":"https://web.facebook.com/Oyomappersteam-omt-oyo-1432864713415765/?ref=your_pages"},"geometry":{"type":"Point","coordinates":[4.225725,8.123388]}},{"type":"Feature","properties":{"place":"Enugu,Nigeria","program":"Open Data Practical Training and Mapathon  Using Openstreetmap ","organizers":"LionMappersTeam(LMT)University of Nigeria,Enugu Campus,Nigeria","nParticipants":100,"url":"https://web.facebook.com/Lionmappersteam-enugu-Campus-361221567667528/"},"geometry":{"type":"Point","coordinates":[7.504434,6.425185]}},{"type":"Feature","properties":{"place":"Nsukka,Nigeria","program":"Open Data Practical Training and Mapathon Using Openstreetmap","organizers":"LionMappersTeam(LMT)Nsukka,University of Nigeria,Nsukka","nParticipants":100,"url":"https://web.facebook.com/LionMappersTeamNsukka/"},"geometry":{"type":"Point","coordinates":[7.408288,6.864455]}},{"type":"Feature","properties":{"place":"Owerri,Nigeria","program":"FutuMappersTeam Inaugural Training:How to map with Openstreetmap","organizers":"FutoMappersTeam(FMT)Federal University of Technology,Owerri,Being coordinated by UnqueMappersTeam-YouthMappers Chapter","nParticipants":50,"url":"https://web.facebook.com/search/top/?q=timipre ruth"},"geometry":{"type":"Point","coordinates":[6.991631,5.386632]}},{"type":"Feature","properties":{"place":"Medialab-Prado, Madrid, Spain","program":"Día de los Datos Abiertos ","organizers":"Datalab Madrid, ODI Madrid, OEG-UPM","nParticipants":77,"url":"http://medialab-prado.es/article/odd18"},"geometry":{"type":"Point","coordinates":[-3.693585,40.41052]}},{"type":"Feature","properties":{"place":"Wellington, New Zealand","program":"Open Data, Open Potential","organizers":"Stats NZ","nParticipants":250,"url":"https://www.eventbrite.co.nz/e/open-data-open-potential-event-friday-2-march-2018-tickets-42733708673"},"geometry":{"type":"Point","coordinates":[174.780104,-41.290052]}},{"type":"Feature","properties":{"place":"Bern, Switzerland","program":"Open Data Day Bern","organizers":"Opendata.ch, Swiss chapter of Open Knowledge","nParticipants":50,"url":"https://www.effinger.ch/events/100180/"},"geometry":{"type":"Point","coordinates":[7.43592,46.946102]}},{"type":"Feature","properties":{"place":"Nova Scotia, Canada","program":"Nova Scotia Open Data Contest","organizers":"Province of Nova Scotia with the School of Information Management and the Rowe School of Business (Faculty of Management, Dalhousie University)","url":"https://www.eventbrite.ca/e/nova-scotia-open-data-contest-tickets-42905119367?aff=es2"},"geometry":{"type":"Point","coordinates":[-63.588217,44.637028]}},{"type":"Feature","properties":{"place":"Concepción, Chile","program":"Open Data Day Concepción","organizers":"OpenData CCP","nParticipants":100,"url":"https://www.facebook.com/events/2065717930311445/"},"geometry":{"type":"Point","coordinates":[-73.04439,-36.820135]}},{"type":"Feature","properties":{"place":"Halifax, Nova Scotia","program":"Nova Scotia Open Data Contest","organizers":"Dalhousie University & The Province of Nova Scotia","nParticipants":100,"url":"https://www.eventbrite.ca/e/nova-scotia-open-data-contest-tickets-42905119367"},"geometry":{"type":"Point","coordinates":[-63.588217,44.637028]}},{"type":"Feature","properties":{"place":"Aberdeen, UK","program":"Aberdeen Data Meetup Launch Event","organizers":"ODI Aberdeen","nParticipants":20,"url":"https://www.eventbrite.co.uk/e/aberdeen-data-meetup-scoping-session-tickets-43029677925"},"geometry":{"type":"Point","coordinates":[-2.100491,57.146636]}},{"type":"Feature","properties":{"place":"Port Harcourt","program":"Open Data Mapping using Openstreetmap","organizers":"IgatiusMappersTeam(IMT)Port Harcourt,Ignatius Ajuru University of Education","nParticipants":70,"url":"https://web.facebook.com/ignatiusmappersteam"},"geometry":{"type":"Point","coordinates":[6.933647,4.806316]}},{"type":"Feature","properties":{"place":"Quito, Ecuador","program":"Open Data Day UIO ","organizers":"Datalat","nParticipants":100,"url":"https://www.datalat.org/opendataday"},"geometry":{"type":"Point","coordinates":[-78.482624,-0.192247]}},{"type":"Feature","properties":{"place":"Walnut Creek, USA","program":"Contra Costa Civic Hackathon for Open Data Day 2018","organizers":"Victory Workspace, Miller Media","nParticipants":50,"url":"https://www.eventbrite.com/e/contra-costa-civic-hackathon-for-open-data-day-2018-tickets-43005029200"},"geometry":{"type":"Point","coordinates":[-122.0640214,37.8964605]}},{"type":"Feature","properties":{"place":"Baunatal, Germany","program":"Open Data Day","organizers":"Nils Schmidt, Florian Otto","nParticipants":15,"url":"https://www.meetup.com/de-DE/bntl-digital-kreativ/events/247662045/"},"geometry":{"type":"Point","coordinates":[9.4146,51.253728]}},{"type":"Feature","properties":{"place":"Copenhagen, Denmark","program":"Open Data Socialising in Copenhagen","organizers":"Open Knowledge Denmark, Ethos Lab, Open4Citizens","nParticipants":50,"url":"https://www.facebook.com/events/278057246058482/"},"geometry":{"type":"Point","coordinates":[12.590954,55.659638]}},{"type":"Feature","properties":{"place":"Chile","program":"Rally #DatosEnLaCalle","organizers":"Observatorio del Gasto Fiscal en Chile, Ministerio de Obras Públicas","nParticipants":100,"url":"http://www.opendataday.cl/rally"},"geometry":{"type":"Point","coordinates":[-70.65387,-33.442909]}},{"type":"Feature","properties":{"place":"Yangon, Myanmar","program":"2018Map Challenge : Help Map Yangon!","organizers":"Phandeeyar , OneMap Myanmar,  Ride partner - Grab","nParticipants":100,"url":"https://docs.google.com/forms/d/e/1FAIpQLSfYp1bfO-89hZrgfyHrxVZ69rMfuBc9CJnrchi9m72Ndcxkrw/viewform?usp=sf_link"},"geometry":{"type":"Point","coordinates":[96.156649,16.772186]}},{"type":"Feature","properties":{"place":"Chile","program":"Lanzamiento DataChile Versión 2","organizers":"Datawheel","url":"https://www.datachile.cl"},"geometry":{"type":"Point","coordinates":[-70.669265,-33.44889]}},{"type":"Feature","properties":{"place":"London, UK","program":"Open Data Day London","organizers":"Hacksmiths - Goldsmiths Tech Society","nParticipants":35,"url":"http://goldsmiths.tech/data"},"geometry":{"type":"Point","coordinates":[-0.03511,51.474452]}},{"type":"Feature","properties":{"place":"Bishkek, Kyrgyzstan","program":"Data Journalism Hackathon #HackPoverty","organizers":"School of Data Kyrgyzstan and American University in Central Asia","nParticipants":70,"url":"http://project533785.tilda.ws"},"geometry":{"type":"Point","coordinates":[74.625192,42.817173]}},{"type":"Feature","properties":{"place":"Colombia","program":"Hackathon AlimenData","organizers":"Secretaría de Transparencia de la Presidencia de la República, el Ministerio de Hacienda y Crédito Público, el Ministerio de Tecnologías de la Información y las Comunicaciones y Open Knowledge Colombia","nParticipants":573007909287,"url":"https://app.sikuani.net/events/71/register"},"geometry":{"type":"Point","coordinates":[-74.074886,4.601022]}},{"type":"Feature","properties":{"place":"Colombia","program":"#RallyColombia","organizers":"Secretaría de Transparencia de la Presidencia de la República, el Ministerio de Hacienda y Crédito Público, el Ministerio de Tecnologías de la Información y las Comunicaciones y Open Knowledge Colombia","nParticipants":100,"url":"https://app.sikuani.net/events/rallycolombia"},"geometry":{"type":"Point","coordinates":[-74.074886,4.601022]}},{"type":"Feature","properties":{"place":"Yangon, Myanmar","program":"2018Map Challenge : Help Map Yangon!","organizers":"Phandeeyar , OneMap Myanmar, Ride partner - Grab","nParticipants":100,"url":"https://docs.google.com/forms/d/e/1FAIpQLSfYp1bfO-89hZrgfyHrxVZ69rMfuBc9CJnrchi9m72Ndcxkrw/viewform?usp=sf_link"},"geometry":{"type":"Point","coordinates":[96.156649,16.772186]}},{"type":"Feature","properties":{"place":"Phnom Penh, Cambodia","program":"Open Data Day 2018","organizers":"Open Development Cambodia","nParticipants":100,"url":"https://www.eventbrite.com/e/open-data-day-2018-tickets-43121355134"},"geometry":{"type":"Point","coordinates":[104.9090709,11.5636644]}},{"type":"Feature","properties":{"place":"Trento","program":"OpenData HackaBot","organizers":"Organizzata da Provincia Autonoma di Trento e Opendata Trentino. \nIn collaborazione con Consorzio dei Comuni Trentini, Trentino Sviluppo, HIT (Hub Innovazione Trentino), SmartCrowds, cLab Trento, Informatica Trentina.\nCon il supporto di DataBoom, Dedagroup, Dimension, GPI, Hi-Logic, U-hopper, e i seguenti progetti Europei: INTERREG Europe OSIRIS e INTERREG central Europe IRBANINNO.","nParticipants":75,"url":"https://www.odhb2018.net"},"geometry":{"type":"Point","coordinates":[11.1229379,46.0642076]}},{"type":"Feature","properties":{"place":"Little Rock, Arkansas, United States","program":"City of Little Rock Open Data Day","organizers":"City of Little Rock Data Governance Committee ","nParticipants":75,"url":"https://www.eventbrite.com/e/little-rock-open-data-day-tickets-42986177815"},"geometry":{"type":"Point","coordinates":[-92.351844,34.667623]}},{"type":"Feature","properties":{"place":"Frankfurt am Main, DE","program":"Open Data Day Hackathon","organizers":"Bogomir Engel, Mischa Zöller","url":"https://www.meetup.com/de-DE/OKLabFfm/events/245260067/"},"geometry":{"type":"Point","coordinates":[8.706141,50.125401]}},{"type":"Feature","properties":{"place":"Edmonton, Canada","program":"International Open Data Day 2018 @EPL","organizers":"Edmonton Public Library, City of Edmonton ","nParticipants":60,"url":"https://www.epl.ca/odd/"},"geometry":{"type":"Point","coordinates":[-113.495953,53.541168]}},{"type":"Feature","properties":{"place":"Copenhagen, Denmark","program":"OPEN DATA DAY - Socializing in Copenhagen","organizers":"ETHOS LAB, OPEN KNOWLEDGE DENMARK, OPEN4CITIZENS","nParticipants":100,"url":"https://ethos.itu.dk/2018/02/13/celebrating-open-data-day-in-copenhagen/"},"geometry":{"type":"Point","coordinates":[12.591191,55.65989]}},{"type":"Feature","properties":{"place":"Bangkok","program":"International Open Data Day 2018 (Thailand Open Data API)","organizers":"Electronic Government Agency (Public Organization) (EGA) ","nParticipants":150},"geometry":{"type":"Point","coordinates":[100.543369,13.726071]}},{"type":"Feature","properties":{"place":"Zagreb, Croatia","program":"Open Data Day Croatia / Dan otvorenih podataka","organizers":"Code for Croatia, Information Commissioner Republic of Croatia, GONG, SRCE University Computing Center","nParticipants":100,"url":"https://odd.codeforcroatia.org"},"geometry":{"type":"Point","coordinates":[15.966553,45.795616]}},{"type":"Feature","properties":{"place":"Yaoundé, Cameroon","program":"Open Data for Agriculture Development","organizers":"NGALEU YVES STEPHANE","nParticipants":25},"geometry":{"type":"Point","coordinates":[12.354722,7.369722]}},{"type":"Feature","properties":{"place":"Torino, Italy","program":"#ODD2018TO Wikidata editathon","organizers":"Synapta Srl & friends","url":"https://synapta.it/odd2018/"},"geometry":{"type":"Point","coordinates":[7.670588,45.066878]}},{"type":"Feature","properties":{"place":"Sacramento, USA","program":"Code for Sacramento Open Data Day","organizers":"Code for Sacramento"},"geometry":{"type":"Point","coordinates":[-121.4812317,38.579042]}},{"type":"Feature","properties":{"place":"Karatina University,Kenya.","program":"Bird-Mapping in the Mt Kenya ecosystem !","organizers":"Karatina university Youth mappers chapter\nJoy mwangi-Alumni advisor karatina university chapter.","nParticipants":50},"geometry":{"type":"Point","coordinates":[37.12791,-0.481416]}},{"type":"Feature","properties":{"place":"Calgary, Canada","program":"CodeAcross Calgary - Civic Hackathon","organizers":"CivicTechYYC","nParticipants":50,"url":"https://www.eventbrite.ca/e/codeacross-a-civictechyyc-hackathon-tickets-42887965058"},"geometry":{"type":"Point","coordinates":[-114.070846,51.048615]}},{"type":"Feature","properties":{"place":"Washington DC","program":"Open Data Day 2018: Help complete the 2018 U.S. City Open Data Census","organizers":"Sunlight Foundation","url":"https://www.eventbrite.com/e/open-data-day-2018-help-complete-the-2018-us-city-open-data-census-tickets-42989484706"},"geometry":{"type":"Point","coordinates":[-77.033148,38.904269]}},{"type":"Feature","properties":{"place":"London, United Kingdom","program":"360Giving Open Data Day","organizers":"360Giving","nParticipants":45,"url":"https://www.eventbrite.co.uk/e/360giving-open-data-day-2018-tickets-43196613233"},"geometry":{"type":"Point","coordinates":[-0.116266,51.485841]}},{"type":"Feature","properties":{"place":"On the Internet","program":"Opening Death Data resources for family historians","organizers":"Free UK Genealogy","url":"https://www.facebook.com/events/195049094575992/"},"geometry":{"type":"Point","coordinates":[-2.861608,54.084727]}},{"type":"Feature","properties":{"place":"Bogotá, Colombia","program":"Data Week","organizers":"Comunidad de Grafoscopio y Data Week / Grafoscopio and Data Week Community","url":"http://is.gd/oddbog"},"geometry":{"type":"Point","coordinates":[-74.066024,4.631307]}},{"type":"Feature","properties":{"place":"Wuppertal","program":"Opendataday Wuppertal 2018 (SmartCity)","organizers":"Opendatal – OKLab Wuppertal und Stadt Wuppertal","nParticipants":50,"url":"http://opendatal.de/oddw2018/"},"geometry":{"type":"Point","coordinates":[7.127542,51.258271]}},{"type":"Feature","properties":{"place":"Natal, Brazil","program":"Open Data Day - Encontro de pesquisas sobre governança pública e dados abertos governamentais","organizers":"LabGov/UFRN - Laboratório de Governança Pública da Universidade Federal do Rio Grande do Norte","nParticipants":150,"url":"http://www.labgov.com.br/odd"},"geometry":{"type":"Point","coordinates":[-35.205317,-5.832136]}},{"type":"Feature","properties":{"place":"San Salvador","program":"\"De un dato una rosa\"","organizers":"Fundación Latitudes, Háblame de Respeto, Escuela de Datos","nParticipants":200},"geometry":{"type":"Point","coordinates":[-89.218191,13.69294]}},{"type":"Feature","properties":{"place":"San Salvador","program":"Datos & Café","organizers":"Fundación Latitudes, Háblame de Respeto, Escuela de Datos","nParticipants":80},"geometry":{"type":"Point","coordinates":[-89.218191,13.69294]}},{"type":"Feature","properties":{"place":"Fort Collins, CO","program":"Open Geo Data Day","organizers":"Geospatial Centroid at Colorado State University","url":"https://gis.colostate.edu/news-events-2/"},"geometry":{"type":"Point","coordinates":[-105.084422,40.572957]}},{"type":"Feature","properties":{"place":"Cancún, México","program":"Día de Datos Abiertos 2018, Unicaribe","organizers":"Universidad del Caribe, Departamento de Ciencias Básica e Ingenierías","nParticipants":100,"url":"http://opendataunicaribe.github.io/2018"},"geometry":{"type":"Point","coordinates":[-86.822957,21.20071]}},{"type":"Feature","properties":{"place":"Edmonton, Alberta","program":"International Open Data Day 2018 @EPL","organizers":"City of Edmonton and Edmonton Public Library","url":"https://www.epl.ca/odd/"},"geometry":{"type":"Point","coordinates":[-113.490927,53.544389]}},{"type":"Feature","properties":{"place":"Helsinki, Finland","program":"Kick-off to Open Data Day by Hel<3Dev & OKFI","organizers":"Helsinki Loves Developers/City of Helsinki and Open Knowledge Finland","url":"https://www.facebook.com/events/940493522793115/"},"geometry":{"type":"Point","coordinates":[24.922738,60.167488]}},{"type":"Feature","properties":{"place":"Geneva Switzerland","program":"Open data for Humanitarian Action","organizers":"IFRC and HDX","nParticipants":30,"url":"http://staff/only"},"geometry":{"type":"Point","coordinates":[6.143158,46.204391]}},{"type":"Feature","properties":{"place":"Curitiba/Paraná/Brazil","program":"Curitiba Open data Day Kids","organizers":"Cristiane Ilkiv Garcia\nStephan Rodrigues Garcia","nParticipants":100,"url":"https://doity.com.br/open-data-day-curitiba-2018"},"geometry":{"type":"Point","coordinates":[-49.253432,-25.459923]}},{"type":"Feature","properties":{"place":"Département de l'Allier","program":"Cartoparty","organizers":"Conseil départemental de l'Allier","url":"http://www.allier.fr"},"geometry":{"type":"Point","coordinates":[3.333501,46.56863]}},{"type":"Feature","properties":{"place":"Kobe, Japan","program":"International Open Data Day 2018 in Kobe","organizers":"Code for Kobe","url":"https://www.facebook.com/events/1242044385940061/"},"geometry":{"type":"Point","coordinates":[135.195359,34.698202]}},{"type":"Feature","properties":{"place":"Albany/Troy, NY","program":"Open Data Day Albany/Troy","organizers":"Ursula Kaczmarek, Matthew Lean, Kishor Bagul","url":"http://opendataalbany.org"},"geometry":{"type":"Point","coordinates":[-73.689873,42.731093]}},{"type":"Feature","properties":{"place":"Ciudad Obregón, Sonora, México","program":"Cajeme Abierto","organizers":"Anwar Benitez\nAndres Avilez\nGuillermo Aceves\nAnabell Covarrubias\nGabriela Lozoya\nIvan Fernandez\nIssa Mendez\nJuan Isaac Badouin\nIsrael Patiño\nRicardo Lugo","nParticipants":60,"url":"https://www.facebook.com/opendatacajeme/"},"geometry":{"type":"Point","coordinates":[-109.929476,27.48306]}},{"type":"Feature","properties":{"place":"Denver, CO","program":"Mapping Mongolia at MSU","organizers":"OSM Colorado (Russ Deffner), Ger Community Mapping Center (Delia Walker-Jones)","url":"https://www.meetup.com/OSM-Colorado/events/247885182/"},"geometry":{"type":"Point","coordinates":[-105.005409,39.745928]}},{"type":"Feature","properties":{"place":"Toyohashi, Aichi, Japan","program":"川王　豊橋国際ハッカソン","organizers":"Code for MIKAWA（うずらインキュベータ）","url":"https://uzura.doorkeeper.jp/events/70877"},"geometry":{"type":"Point","coordinates":[137.407242,34.777613]}},{"type":"Feature","properties":{"place":"Tunisia","program":"Tunisia Open Data Hackathon","organizers":"Forum pour une nouvelle république","url":"http://appsfordemocracy.tn"},"geometry":{"type":"Point","coordinates":[9.537499,33.886917]}},{"type":"Feature","properties":{"place":"Bologna","program":"#ODD2018 Bologna: Dati & Donne Le correlazioni pericolose, le disuguaglianze strutturali","organizers":"Open Education Italia, Associazione Orlando, Comune di Bologna","nParticipants":50,"url":"https://educazioneaperta.eu/wp/open-data-day-2018-donne-dati/"},"geometry":{"type":"Point","coordinates":[11.327591,44.498955]}},{"type":"Feature","properties":{"place":"Zapopan, México","program":"ODD: Datos abiertos para la participación ciudadana. ","organizers":"Grupo Estudiantil Changemakers, Gerardo Cruz","nParticipants":100,"url":"https://www.facebook.com/changemakerstec/"},"geometry":{"type":"Point","coordinates":[-103.454912,20.735008]}},{"type":"Feature","properties":{"place":"New York, USA","program":"Evidence Appraisal Open Data Day","organizers":"EvidenceBase"},"geometry":{"type":"Point","coordinates":[-73.971424,40.792784]}},{"type":"Feature","properties":{"place":"Kigali, Rwanda","program":"Open data for Slum upgrading/map Kangondo, Kigali","organizers":"YouthMappers at INES-Ruhengeri","nParticipants":24},"geometry":{"type":"Point","coordinates":[30.10322,-1.933725]}},{"type":"Feature","properties":{"place":"Dayton, Ohio, USA","program":"Drop-in Data Dive ","organizers":"Code for Dayton","nParticipants":20,"url":"https://www.meetup.com/Code-for-Dayton/events/247919138/"},"geometry":{"type":"Point","coordinates":[-84.193016,39.760375]}},{"type":"Feature","properties":{"place":"Papeete / Tahiti / French Polynesia","program":"Open Data Day 2018 un Tahiti","organizers":"Hubert Leviel, Laurent Pellet","nParticipants":15,"url":"http://meetu.ps/e/DVh4y/wTrbK/d"},"geometry":{"type":"Point","coordinates":[-149.566231,-17.539802]}},{"type":"Feature","properties":{"place":"Washington, DC, USA","program":"Open Data Project Night","organizers":"Code for DC","url":"https://www.meetup.com/Code-for-DC/events/246029381/"},"geometry":{"type":"Point","coordinates":[-77.031008,38.898569]}},{"type":"Feature","properties":{"place":"Madagascar","program":"\"Open data on public finances in Madagascar\"","organizers":"Transparency International Initiative Madagascar","nParticipants":100},"geometry":{"type":"Point","coordinates":[47.507905,-18.87919]}},{"type":"Feature","properties":{"place":"Madagascar","program":"Open data on public finances in Madagascar","organizers":"Transparency International Initiative Madagascar","nParticipants":100},"geometry":{"type":"Point","coordinates":[47.507905,-18.87919]}},{"type":"Feature","properties":{"place":"Tunis","program":"HACKATHON Apps For Democracy \"Open Data\"","organizers":"Forum pour une Nouvelle République","nParticipants":50,"url":"https://www.facebook.com/events/548210832226198/"},"geometry":{"type":"Point","coordinates":[10.21,36.83]}},{"type":"Feature","properties":{"place":"Rivne, Ukraine","program":"Sick Elections","organizers":"Civil Network OPORA","nParticipants":15,"url":"https://www.facebook.com/cn.opora/posts/10155228880010108?pnref=story"},"geometry":{"type":"Point","coordinates":[26.25015,50.62201]}},{"type":"Feature","properties":{"place":"Abuja, Nigeria ","program":"FollowtheFunds Town Hall Meeting powered with ConsTrack Mobile App","organizers":"OrderPaper NG","nParticipants":12,"url":"http://bit.ly/2oa2Ntu"},"geometry":{"type":"Point","coordinates":[7.495371,9.034313]}},{"type":"Feature","properties":{"place":"Bucharest, Romania","program":"Culture Hack","organizers":"Center for Public Innovation & OGP Romania","nParticipants":50,"url":"https://www.facebook.com/events/146996179392902/"},"geometry":{"type":"Point","coordinates":[26.102142,44.439218]}},{"type":"Feature","properties":{"place":"Dhaka, Rajshahi, Satkhira, Barguna, Moulvibazar, Chittagong, Chapai Nawabganj, Bogra, Kurigram, Jhenaidah, Naugaon, Cox's Bazar, Khulna, Munshiganj, Bhola, Noakhali, Gaibandha","program":"Open Data Day 2018","organizers":"Open Knowledge Bangladesh and Bangladesh NGOs Network for Radio and Communication","nParticipants":100,"url":"https://www.facebook.com/events/2062474293971708/"},"geometry":{"type":"Point","coordinates":[90.412518,23.810332]}},{"type":"Feature","properties":{"place":"Eldoret, Kenya","program":"Data Driven Hack4Good-Governance","organizers":"EldoHub","nParticipants":50,"url":"https://docs.google.com/forms/d/e/1FAIpQLSdFsXk6qztY6nDlgy5Q7J49msLQ-WGwQwBIY1SjyZKXrZYzZQ/viewform"},"geometry":{"type":"Point","coordinates":[35.265333,0.519504]}},{"type":"Feature","properties":{"place":"Amsterdam","program":"Hack de Valse Start","organizers":"Open State Foundation","nParticipants":100,"url":"https://hackdevalsestart.nl"},"geometry":{"type":"Point","coordinates":[4.832578,52.35618]}},{"type":"Feature","properties":{"place":"Austin, Texas","program":"Open Data Day ","organizers":"Open Austin ","url":"https://www.meetup.com/Open-Austin/events/zfmdhpyxfbfb/"},"geometry":{"type":"Point","coordinates":[-97.740544,30.268994]}},{"type":"Feature","properties":{"place":"Riyadh, Saudi Arabia ","program":"Riyadh Open Data Day","organizers":"Saudi Data Community","url":"https://twitter.com/DataCommunitySA"},"geometry":{"type":"Point","coordinates":[46.675296,24.713552]}},{"type":"Feature","properties":{"place":"Rio de Janeiro","program":"Open Data Day in Rio","organizers":"Marcela Ribeiro Gonçalves e Elizete Ignacio","nParticipants":40,"url":"https://www.facebook.com/events/343581412823483/"},"geometry":{"type":"Point","coordinates":[-43.172896,-22.906847]}},{"type":"Feature","properties":{"place":"Cambridge, UK","program":"Open Data Day Cambridge 2018","organizers":"Yo Yehudi, Naomi Penfold","nParticipants":20,"url":"https://open-data-day-cambridge-2018.github.io"},"geometry":{"type":"Point","coordinates":[0.128621,52.197404]}},{"type":"Feature","properties":{"place":"Brisbane, Australia","program":"International Open Data Day Networking Event","organizers":"ODI Australian Network","nParticipants":80,"url":"https://iodd.eventbrite.com.au"},"geometry":{"type":"Point","coordinates":[153.0345,-27.4565]}},{"type":"Feature","properties":{"place":"Kochi, India","program":"MapMyData","organizers":"PanApps / Assyst International Pvt Ltd","nParticipants":60},"geometry":{"type":"Point","coordinates":[76.333526,10.073129]}},{"type":"Feature","properties":{"place":"Addis Ababa, Ethiopia","program":"OpenCon 2018 Addis Ababa","organizers":"Open Knowledge Ethiopia","nParticipants":40,"url":"http://www.opencon2017.org/opencon_2018_addis_ababa"},"geometry":{"type":"Point","coordinates":[38.757761,8.980603]}},{"type":"Feature","properties":{"place":"Addis Ababa, Ethiopia","program":"OpenCon 2018 Addis Ababa","organizers":"Open Knowledge Ethiopia and Addis Ababa University","nParticipants":40,"url":"http://www.opencon2017.org/opencon_2018_addis_ababa"},"geometry":{"type":"Point","coordinates":[38.757731,9.047696]}},{"type":"Feature","properties":{"place":"Zapopan","program":"¡Pasanos Tus Datos!","organizers":"Zapopan Lab","nParticipants":30,"url":"http://www.facebook.com/zapopanlab"},"geometry":{"type":"Point","coordinates":[-103.416501,20.671956]}},{"type":"Feature","properties":{"place":"Kimberley,South Africa","program":"Open Data Day Kimberley","organizers":"NCDev Ecosystem","nParticipants":40},"geometry":{"type":"Point","coordinates":[24.766445,-28.745104]}},{"type":"Feature","properties":{"place":"United Kingdom","program":"The Open Data of Death","organizers":"Free UK Genealogy","url":"https://www.facebook.com/events/195049094575992/"},"geometry":{"type":"Point","coordinates":[-1.340041,52.817867]}},{"type":"Feature","properties":{"place":"Fortaleza - Brasil","program":"Open Data Day UFC","organizers":"Labocart - UFC"},"geometry":{"type":"Point","coordinates":[-38.573561,-3.746096]}},{"type":"Feature","properties":{"place":"Los Angeles City Hall, USA","program":"LA City Council Meeting","organizers":"Los Angeles Councilmember Monica Rodriguez, 7th District; Los Angeles City Controller Ron Galperin","url":"http://ens.lacity.org/clk/councilagendas/clkcouncilagendas3118730_02202018.html%20(sample%20agenda)"},"geometry":{"type":"Point","coordinates":[-118.2429316,34.0535267]}},{"type":"Feature","properties":{"place":"Porto Alegre","program":"Dia dos Dados Abertos POA","nParticipants":40,"url":"https://goo.gl/forms/GJ6vsDL6IPbrbTGe2"},"geometry":{"type":"Point","coordinates":[-51.217658,-30.034647]}},{"type":"Feature","properties":{"place":"New Orleans","program":"Hacks/Hackers Open Data Day 2018","organizers":"Samantha Sunne, Hacks/Hackers","url":"https://www.meetup.com/Hacks-Hackers-New-Orleans/events/248003191/"},"geometry":{"type":"Point","coordinates":[-90.046529,29.964614]}},{"type":"Feature","properties":{"place":"Montréal, Québec, Canada","program":"Journée internationale des données ouvertes","organizers":"Robin Millette","nParticipants":50,"url":"http://jido2018.waglo.com"},"geometry":{"type":"Point","coordinates":[-73.561756,45.528374]}},{"type":"Feature","properties":{"place":"Tucson, AZ, USA","program":"Open Data Day Tucson 2018","organizers":"Code for Tucson","nParticipants":10,"url":"https://www.meetup.com/Code-for-Tucson/events/248009028/"},"geometry":{"type":"Point","coordinates":[-110.9528435,32.2311137]}},{"type":"Feature","properties":{"place":"Kurume city,japan","program":"IODD 2018 Data Analytics in Kurume","organizers":"Kurume Open Data  Promotion Research Group","nParticipants":24,"url":"https://www.facebook.com/events/1792217767748298/"},"geometry":{"type":"Point","coordinates":[130.51178,33.313572]}},{"type":"Feature","properties":{"place":"otsu shiga Japan","program":"Date Academy in Otsu","organizers":"CIty Otsu","url":"http://www.city.otsu.lg.jp/kanko/event/1516766105677.html"},"geometry":{"type":"Point","coordinates":[135.875551,35.006447]}},{"type":"Feature","properties":{"place":"Kishiwada OSAKA JAPAN","program":"岸和田おーぷんでーたそん2018(Kishiwada Opendatathon 2018)","organizers":"Kishiwada city , Wakayama University , 和歌山大学岸和田サテライト友の会 , 泉州らへんでオープンデータとＧＩＳを楽しむ会","nParticipants":30,"url":"http://www.wakayama-u.ac.jp/kishiwada/post_460.html"},"geometry":{"type":"Point","coordinates":[135.374222,34.45926]}},{"type":"Feature","properties":{"place":"Osaka","program":"The 9th Linked Open Data Hackathon in International Open Data Day OSAKA 2018","organizers":"Linked Open Data Challenge Committee Kansai, Japan  ","url":"http://iodd2018osaka.peatix.com"},"geometry":{"type":"Point","coordinates":[135.489671,34.707637]}},{"type":"Feature","properties":{"place":"Ishikawa, Japan","program":"大雪災害について考えよう 〜 インターナショナル・オープンデータ・デイ2018 in Ishikawa","organizers":"Code for Kanazawa","nParticipants":50,"url":"https://www.facebook.com/events/162559927725035/"},"geometry":{"type":"Point","coordinates":[136.625573,36.594682]}},{"type":"Feature","properties":{"place":"Sapporo, Japan","program":"International OpenData day 2018 Sapporo","organizers":"Yasuto FURUKAWA, Code for Sapporo","nParticipants":30,"url":"https://connpass.com/event/80202/"},"geometry":{"type":"Point","coordinates":[141.352565,43.046279]}},{"type":"Feature","properties":{"place":"Fuchu,Tokyo","program":"IDOBATAKAIGI,March - IODD special -","organizers":"Code for Fuchu","nParticipants":15,"url":"https://www.facebook.com/events/140000353478407/"},"geometry":{"type":"Point","coordinates":[139.480403,35.672081]}},{"type":"Feature","properties":{"place":"Accra, Ghana","program":"iWatch Africa: 2018 International Open Data Day Conference","organizers":"iWatch Africa","nParticipants":20,"url":"http://iwatchafrica.org/2018/02/21/register-2018-international-open-data-day-conference/"},"geometry":{"type":"Point","coordinates":[-0.186964,5.603717]}},{"type":"Feature","properties":{"place":"Chelyabinsk","program":"Chelyabinsk Open data day","organizers":"Timofey Subbotin (opendatachel.ru)","nParticipants":50,"url":"http://day.opendatachel.ru"},"geometry":{"type":"Point","coordinates":[61.334273,55.188438]}},{"type":"Feature","properties":{"place":"Vienna, Austria","program":"Open Data Day Vienna","organizers":"City of Vienna","url":"https://open.wien.gv.at/site/der-open-data-day-2018-wien-ist-dabei/"},"geometry":{"type":"Point","coordinates":[16.357675,48.211003]}},{"type":"Feature","properties":{"place":"Kampala, Uganda","program":"Open Data Georeferencing","organizers":"Rohan Cooray","nParticipants":10,"url":"http://by/invitation%20only"},"geometry":{"type":"Point","coordinates":[32.58252,0.347596]}},{"type":"Feature","properties":{"place":"Quezon City, Metro Manila, Philippines","program":"Roundtable Discussion on Open Research in the Philippines","organizers":"Institute for Leadership, Empowerment, and Democracy (iLEAD)","nParticipants":30,"url":"http://ilead.ph/2018/02/20/open-data-day-rtd-on-open-research-in-the-philippines/"},"geometry":{"type":"Point","coordinates":[121.031705,14.629795]}},{"type":"Feature","properties":{"place":"Madrid","program":"Día de los Datos Abiertos","organizers":"ODI Madrid; OEG-UPM; DataLAB Madrid","nParticipants":100,"url":"https://www.medialab-prado.es/noticias/dia-de-los-datos-abiertos"},"geometry":{"type":"Point","coordinates":[3.693799,40.410531]}},{"type":"Feature","properties":{"place":"IT University,  Ethos Lab ","program":"OpenDataDay","organizers":"OPEN KNOWLEDGE DANMARK, Open4Citizens,  Ethos Lab","url":"https://dk.okfn.org/2018/02/13/join-us-for-open-data-day-2018-in-copenhagen/"},"geometry":{"type":"Point","coordinates":[12.590958,55.659635]}},{"type":"Feature","properties":{"place":"Abidjan (Côte d'Ivoire)","program":"Visualize geographical data on Côte d'Ivoire Extractive Industries.","organizers":"Idriss KONE","nParticipants":15},"geometry":{"type":"Point","coordinates":[-4.024429,5.345317]}},{"type":"Feature","properties":{"place":"Abidjan - Côte d'Ivoire","program":"A la découverte de l'Open Data","organizers":"Ovillage","nParticipants":20},"geometry":{"type":"Point","coordinates":[-4.008256,5.359952]}},{"type":"Feature","properties":{"place":"Tehran","program":"Open Data Day 2018 @ Shahid Beheshti (National) University (of Iran)","organizers":"Dr. Kaveh Bazargan (SBU / SIGCHI.IR)","url":"http://www.sigchi.ir"},"geometry":{"type":"Point","coordinates":[51.392683,35.798877]}},{"type":"Feature","properties":{"place":"Birmingham, UK","program":"Data Dig: Civil Society & Open Data expedition","organizers":"Pauline Roche, Ted Ryan (RnR Organisation), Simon Whitehouse, Mike Cummins (Data Unlocked)","nParticipants":25,"url":"https://www.eventbrite.co.uk/e/data-dig-civil-society-open-data-expedition-registration-42570265811?utm_source=eb_email&utm_medium=email&utm_campaign=order_confirmation_email&utm_term=eventname&ref=eemailordconf"},"geometry":{"type":"Point","coordinates":[-1.888244,52.489254]}},{"type":"Feature","properties":{"place":"Gifu, Japan","program":"FIND / GIFU","organizers":"CODE for GIFU","nParticipants":15,"url":"https://iodd2018gifu.peatix.com"},"geometry":{"type":"Point","coordinates":[137.252173,36.146124]}},{"type":"Feature","properties":{"place":"Managua, Nicaragua","program":"Open Data Day - Mapathon!","organizers":"YEKA Street MGA, YouthMappers ","url":"https://www.facebook.com/events/207585956486814/"},"geometry":{"type":"Point","coordinates":[-86.268187,12.130239]}},{"type":"Feature","properties":{"place":"Kampala, Uganda","program":"Open-Contracting Data Clinic ","organizers":"Africa Freedom of Information Centre ","nParticipants":30,"url":"https://africafoicentre.org/event/open-contracting-clinic-makerere-university/"},"geometry":{"type":"Point","coordinates":[32.570988,0.329183]}},{"type":"Feature","properties":{"place":"Cagliari, Italy","program":"Cagliari Open Data Day","organizers":"Circolo dei Giuristi Telematici, civic hackers","nParticipants":70,"url":"http://www.cagliariopendataday.eu"},"geometry":{"type":"Point","coordinates":[9.104686,39.221514]}},{"type":"Feature","properties":{"place":"Ikoma, Nara, Japan","program":"Open Data Drinking Party in IKOMA","organizers":"CODE for IKOMA","nParticipants":20,"url":"https://facebook.com/events/423095421484493"},"geometry":{"type":"Point","coordinates":[135.698848,34.695067]}},{"type":"Feature","properties":{"place":"AIZU","program":"Open Data Day in Aizu","organizers":"YASUSHI FUJII","url":"https://www.facebook.com/events/748414425348693/"},"geometry":{"type":"Point","coordinates":[139.92981,37.494761]}}]}
